{
"type": "FeatureCollection",
"features": [
{ "type": "Feature", "properties": { "name": "A K Joshi", "refs": "878,", "route_nums": "56A," }, "geometry": { "type": "Point", "coordinates": [ 72.9717258, 19.1876087 ] } },
{ "type": "Feature", "properties": { "name": "A.K. Joshi Vidyalaya", "refs": "35,66,191,281,654,691,1573,1777,1817,2183,2292,2344,", "route_nums": "20,23,34,36,43,52,53,6,78,8,91,95," }, "geometry": { "type": "Point", "coordinates": [ 72.971783775, 19.187643758333333 ] } },
{ "type": "Feature", "properties": { "name": "Aachola Gaon", "refs": "3591,", "route_nums": "69," }, "geometry": { "type": "Point", "coordinates": [ 72.8356342, 19.3976279 ] } },
{ "type": "Feature", "properties": { "name": "Aai Mata Mandir", "refs": "1006,", "route_nums": "110," }, "geometry": { "type": "Point", "coordinates": [ 72.9569332, 19.2071149 ] } },
{ "type": "Feature", "properties": { "name": "Aai Mata Mandir Chowk", "refs": "1306,2879,", "route_nums": "115,122," }, "geometry": { "type": "Point", "coordinates": [ 72.95693265, 19.2071157 ] } },
{ "type": "Feature", "properties": { "name": "Aalimghar", "refs": "1529,", "route_nums": "87," }, "geometry": { "type": "Point", "coordinates": [ 73.0363245, 19.2037617 ] } },
{ "type": "Feature", "properties": { "name": "Aashapura Mndir", "refs": "890,", "route_nums": "56A," }, "geometry": { "type": "Point", "coordinates": [ 72.9777859, 19.2162552 ] } },
{ "type": "Feature", "properties": { "name": "Aazad Nagar Naka", "refs": "81,", "route_nums": "52," }, "geometry": { "type": "Point", "coordinates": [ 72.9755172, 19.2410653 ] } },
{ "type": "Feature", "properties": { "name": "Aban Park", "refs": "485,", "route_nums": "96," }, "geometry": { "type": "Point", "coordinates": [ 72.9801, 19.22922 ] } },
{ "type": "Feature", "properties": { "name": "Achole Talav", "refs": "3595,", "route_nums": "69," }, "geometry": { "type": "Point", "coordinates": [ 72.8274878, 19.4108087 ] } },
{ "type": "Feature", "properties": { "name": "Agarwal Estate", "refs": "3585,", "route_nums": "69," }, "geometry": { "type": "Point", "coordinates": [ 72.8599123, 19.4058038 ] } },
{ "type": "Feature", "properties": { "name": "Agriculture", "refs": "668,2263,2874,", "route_nums": "102,122,23," }, "geometry": { "type": "Point", "coordinates": [ 72.9540677, 19.199734433333333 ] } },
{ "type": "Feature", "properties": { "name": "Air Force Station", "refs": "239,", "route_nums": "16," }, "geometry": { "type": "Point", "coordinates": [ 72.949562, 19.224512 ] } },
{ "type": "Feature", "properties": { "name": "Air Force Station Kolshet", "refs": "876,2206,", "route_nums": "95,98," }, "geometry": { "type": "Point", "coordinates": [ 72.9919724, 19.2404289 ] } },
{ "type": "Feature", "properties": { "name": "Almos Colony", "refs": "2377,3675,", "route_nums": "70,78," }, "geometry": { "type": "Point", "coordinates": [ 73.0259848, 19.16792925 ] } },
{ "type": "Feature", "properties": { "name": "Amar Palace", "refs": "1144,", "route_nums": "65," }, "geometry": { "type": "Point", "coordinates": [ 72.879061, 19.269292 ] } },
{ "type": "Feature", "properties": { "name": "Ambika Nagar", "refs": "667,1003,2262,2873,", "route_nums": "102,110,122,23," }, "geometry": { "type": "Point", "coordinates": [ 72.955671775, 19.197629125 ] } },
{ "type": "Feature", "properties": { "name": "Ambika Yoga Kutir", "refs": "430,", "route_nums": "12," }, "geometry": { "type": "Point", "coordinates": [ 72.9771983, 19.2073122 ] } },
{ "type": "Feature", "properties": { "name": "Amrut Angan", "refs": "1515,2363,3659,", "route_nums": "70,78,87," }, "geometry": { "type": "Point", "coordinates": [ 73.012818866666677, 19.208974266666669 ] } },
{ "type": "Feature", "properties": { "name": "Amrut Nagar", "refs": "2375,2753,3672,", "route_nums": "70,75,78," }, "geometry": { "type": "Point", "coordinates": [ 73.02306706666667, 19.174453366666668 ] } },
{ "type": "Feature", "properties": { "name": "Anand Nagar Agar", "refs": "3462,", "route_nums": "63," }, "geometry": { "type": "Point", "coordinates": [ 72.9698419, 19.2649823 ] } },
{ "type": "Feature", "properties": { "name": "Anand Vihar", "refs": "3175,", "route_nums": "82," }, "geometry": { "type": "Point", "coordinates": [ 73.00520167, 19.20189667 ] } },
{ "type": "Feature", "properties": { "name": "Anjur", "refs": "1526,", "route_nums": "87," }, "geometry": { "type": "Point", "coordinates": [ 73.0390638, 19.2158233 ] } },
{ "type": "Feature", "properties": { "name": "Anjur Phata", "refs": "1364,1364,", "route_nums": "85,89," }, "geometry": { "type": "Point", "coordinates": [ 73.0412836, 19.2728192 ] } },
{ "type": "Feature", "properties": { "name": "Anunagar", "refs": "1920,3460,", "route_nums": "51,63," }, "geometry": { "type": "Point", "coordinates": [ 72.97467605, 19.25811705 ] } },
{ "type": "Feature", "properties": { "name": "Aradhana Cinema", "refs": "1814,2295,", "route_nums": "20,6," }, "geometry": { "type": "Point", "coordinates": [ 72.96836385, 19.1927344 ] } },
{ "type": "Feature", "properties": { "name": "Ashapura Mandir", "refs": "44,75,334,812,1110,1585,1909,2195,2509,2775,3074,3116,3323,3449,3544,3885,", "route_nums": "126,27,51,52,53,54,56,61,62,63,65,69,75,91,92,95," }, "geometry": { "type": "Point", "coordinates": [ 72.977774862499999, 19.216262668750002 ] } },
{ "type": "Feature", "properties": { "name": "Ashapura Mandir / Majiwada Naka", "refs": "1700,", "route_nums": "60," }, "geometry": { "type": "Point", "coordinates": [ 72.9777799, 19.2162562 ] } },
{ "type": "Feature", "properties": { "name": "Ashok Nagar", "refs": "1593,1593,", "route_nums": "91,93," }, "geometry": { "type": "Point", "coordinates": [ 72.9942555, 19.2223298 ] } },
{ "type": "Feature", "properties": { "name": "Asian Cable", "refs": "2889,", "route_nums": "122," }, "geometry": { "type": "Point", "coordinates": [ 72.964566, 19.2198566 ] } },
{ "type": "Feature", "properties": { "name": "Atriya Society", "refs": "86,3896,", "route_nums": "126,52," }, "geometry": { "type": "Point", "coordinates": [ 72.982213300000012, 19.2455202 ] } },
{ "type": "Feature", "properties": { "name": "Automatic Company", "refs": "663,999,1295,2258,2336,2542,2869,3142,", "route_nums": "102,104,110,111,115,122,23,78," }, "geometry": { "type": "Point", "coordinates": [ 72.955214362499987, 19.187483612499999 ] } },
{ "type": "Feature", "properties": { "name": "Azad Nagar", "refs": "83,2516,2902,3893,", "route_nums": "122,126,52,62," }, "geometry": { "type": "Point", "coordinates": [ 72.980556325, 19.239447 ] } },
{ "type": "Feature", "properties": { "name": "Azad Nagar Naka", "refs": "50,340,1116,1707,2900,3122,3455,3550,3892,", "route_nums": "122,126,53,54,60,61,63,65,69," }, "geometry": { "type": "Point", "coordinates": [ 72.975546077777778, 19.241098422222223 ] } },
{ "type": "Feature", "properties": { "name": "Azadnagar Naka", "refs": "1916,", "route_nums": "51," }, "geometry": { "type": "Point", "coordinates": [ 72.97553667, 19.24095333 ] } },
{ "type": "Feature", "properties": { "name": "Balkum Naka", "refs": "1351,1591,3015,3712,4055,", "route_nums": "46,85,89,91,93," }, "geometry": { "type": "Point", "coordinates": [ 72.98958274, 19.22149238 ] } },
{ "type": "Feature", "properties": { "name": "Balkum Pada No 1", "refs": "1592,3713,", "route_nums": "91,93," }, "geometry": { "type": "Point", "coordinates": [ 72.991217, 19.22183885 ] } },
{ "type": "Feature", "properties": { "name": "Balkum Pada No 2", "refs": "3014,", "route_nums": "46," }, "geometry": { "type": "Point", "coordinates": [ 72.9898356, 19.2200382 ] } },
{ "type": "Feature", "properties": { "name": "Balkum Pada No 3", "refs": "3013,", "route_nums": "46," }, "geometry": { "type": "Point", "coordinates": [ 72.9908142, 19.2165346 ] } },
{ "type": "Feature", "properties": { "name": "Bapana Bridge", "refs": "3577,", "route_nums": "69," }, "geometry": { "type": "Point", "coordinates": [ 72.8925662, 19.3629974 ] } },
{ "type": "Feature", "properties": { "name": "Bappa Sitaram", "refs": "3600,", "route_nums": "69," }, "geometry": { "type": "Point", "coordinates": [ 72.8205371, 19.4194397 ] } },
{ "type": "Feature", "properties": { "name": "Bara Bunglow", "refs": "3536,", "route_nums": "69," }, "geometry": { "type": "Point", "coordinates": [ 72.9694662, 19.18237 ] } },
{ "type": "Feature", "properties": { "name": "Batata Company", "refs": "1121,", "route_nums": "65," }, "geometry": { "type": "Point", "coordinates": [ 72.969181, 19.26043 ] } },
{ "type": "Feature", "properties": { "name": "Batata Company / Vijay Garden", "refs": "3127,", "route_nums": "61," }, "geometry": { "type": "Point", "coordinates": [ 72.9691728, 19.2604289 ] } },
{ "type": "Feature", "properties": { "name": "Batata Company / Vijay Garden / Dmart", "refs": "1712,3555,", "route_nums": "60,69," }, "geometry": { "type": "Point", "coordinates": [ 72.9691725, 19.26042865 ] } },
{ "type": "Feature", "properties": { "name": "Bayer Main Gate", "refs": "871,2201,", "route_nums": "95,98," }, "geometry": { "type": "Point", "coordinates": [ 72.9860598, 19.23114335 ] } },
{ "type": "Feature", "properties": { "name": "Bethany Hospital", "refs": "707,1019,2888,", "route_nums": "110,122,34," }, "geometry": { "type": "Point", "coordinates": [ 72.961823333333328, 19.220412933333336 ] } },
{ "type": "Feature", "properties": { "name": "Bhaindar Pada", "refs": "64,1131,1720,2785,3564,", "route_nums": "53,60,65,69,75," }, "geometry": { "type": "Point", "coordinates": [ 72.95189018, 19.28355002 ] } },
{ "type": "Feature", "properties": { "name": "Bhandup Pumping Centre", "refs": "3789,", "route_nums": "126," }, "geometry": { "type": "Point", "coordinates": [ 72.9572244, 19.1555082 ] } },
{ "type": "Feature", "properties": { "name": "Bharat Gears", "refs": "2382,2747,3679,", "route_nums": "70,75,78," }, "geometry": { "type": "Point", "coordinates": [ 73.031537933333325, 19.157537433333335 ] } },
{ "type": "Feature", "properties": { "name": "Bharat Nagar", "refs": "3858,", "route_nums": "126," }, "geometry": { "type": "Point", "coordinates": [ 72.8590797, 19.0617066 ] } },
{ "type": "Feature", "properties": { "name": "Bhendi Pada", "refs": "244,", "route_nums": "16," }, "geometry": { "type": "Point", "coordinates": [ 72.9439169, 19.2381292 ] } },
{ "type": "Feature", "properties": { "name": "Bhiwandi Bypass", "refs": "4068,", "route_nums": "89," }, "geometry": { "type": "Point", "coordinates": [ 73.0481918, 19.2812065 ] } },
{ "type": "Feature", "properties": { "name": "Bhiwandi ST Bus Stand", "refs": "1466,", "route_nums": "88," }, "geometry": { "type": "Point", "coordinates": [ 73.066018, 19.301902 ] } },
{ "type": "Feature", "properties": { "name": "Bhoidapada", "refs": "3586,", "route_nums": "69," }, "geometry": { "type": "Point", "coordinates": [ 72.8555272, 19.4054709 ] } },
{ "type": "Feature", "properties": { "name": "Bhoomi Acres", "refs": "92,", "route_nums": "52," }, "geometry": { "type": "Point", "coordinates": [ 72.9757972, 19.2587997 ] } },
{ "type": "Feature", "properties": { "name": "Bhoomi World", "refs": "1458,", "route_nums": "88," }, "geometry": { "type": "Point", "coordinates": [ 73.073793, 19.263278 ] } },
{ "type": "Feature", "properties": { "name": "Bhu Kendra", "refs": "238,1015,3251,", "route_nums": "10,110,16," }, "geometry": { "type": "Point", "coordinates": [ 72.952783166666663, 19.218558933333334 ] } },
{ "type": "Feature", "properties": { "name": "BKC", "refs": "3855,", "route_nums": "126," }, "geometry": { "type": "Point", "coordinates": [ 72.8529704, 19.0562861 ] } },
{ "type": "Feature", "properties": { "name": "Boringer", "refs": "874,2204,", "route_nums": "95,98," }, "geometry": { "type": "Point", "coordinates": [ 72.989781099999988, 19.2372176 ] } },
{ "type": "Feature", "properties": { "name": "Borivali National Park", "refs": "1739,", "route_nums": "60," }, "geometry": { "type": "Point", "coordinates": [ 72.8634934, 19.2302632 ] } },
{ "type": "Feature", "properties": { "name": "Borivali Station (East)", "refs": "1043,1741,", "route_nums": "60,65," }, "geometry": { "type": "Point", "coordinates": [ 72.85850880000001, 19.2305822 ] } },
{ "type": "Feature", "properties": { "name": "Bradma Compound", "refs": "666,1002,2261,2872,", "route_nums": "102,110,122,23," }, "geometry": { "type": "Point", "coordinates": [ 72.954853857499998, 19.195846125 ] } },
{ "type": "Feature", "properties": { "name": "Brahmand", "refs": "2521,2907,", "route_nums": "122,62," }, "geometry": { "type": "Point", "coordinates": [ 72.98614125, 19.2474856 ] } },
{ "type": "Feature", "properties": { "name": "Brahmand Phase 1,2", "refs": "2903,", "route_nums": "122," }, "geometry": { "type": "Point", "coordinates": [ 72.9815396, 19.2413287 ] } },
{ "type": "Feature", "properties": { "name": "Brahmand Phase 2", "refs": "3894,", "route_nums": "126," }, "geometry": { "type": "Point", "coordinates": [ 72.9815394, 19.2413262 ] } },
{ "type": "Feature", "properties": { "name": "Brahmand Phase 4", "refs": "84,2517,", "route_nums": "52,62," }, "geometry": { "type": "Point", "coordinates": [ 72.98154035, 19.24132975 ] } },
{ "type": "Feature", "properties": { "name": "Brahmand Phase 5", "refs": "2519,2905,", "route_nums": "122,62," }, "geometry": { "type": "Point", "coordinates": [ 72.9835694, 19.24501795 ] } },
{ "type": "Feature", "properties": { "name": "Brahmand Phase 6", "refs": "2520,2906,", "route_nums": "122,62," }, "geometry": { "type": "Point", "coordinates": [ 72.9846983, 19.2466346 ] } },
{ "type": "Feature", "properties": { "name": "Bramhala Talav / Manorpada", "refs": "472,2189,", "route_nums": "95,96," }, "geometry": { "type": "Point", "coordinates": [ 72.97601035, 19.20257315 ] } },
{ "type": "Feature", "properties": { "name": "Bramhla Talav/ Mnorpada", "refs": "884,", "route_nums": "56A," }, "geometry": { "type": "Point", "coordinates": [ 72.9760092, 19.2025701 ] } },
{ "type": "Feature", "properties": { "name": "Building No 3", "refs": "233,702,1010,2883,3246,", "route_nums": "10,110,122,16,34," }, "geometry": { "type": "Point", "coordinates": [ 72.95995782, 19.21232222 ] } },
{ "type": "Feature", "properties": { "name": "Building No. 3", "refs": "150,201,", "route_nums": "8,9," }, "geometry": { "type": "Point", "coordinates": [ 72.960057, 19.21220595 ] } },
{ "type": "Feature", "properties": { "name": "Cadbury Company", "refs": "147,230,699,3243,", "route_nums": "10,16,34,9," }, "geometry": { "type": "Point", "coordinates": [ 72.967071925, 19.2054321 ] } },
{ "type": "Feature", "properties": { "name": "Cadbury Juction", "refs": "3541,3881,", "route_nums": "126,69," }, "geometry": { "type": "Point", "coordinates": [ 72.9684019, 19.20439925 ] } },
{ "type": "Feature", "properties": { "name": "Cadbury Junction", "refs": "42,72,197,1106,1343,1446,", "route_nums": "52,53,65,8,85,88," }, "geometry": { "type": "Point", "coordinates": [ 72.968007950000015, 19.203985 ] } },
{ "type": "Feature", "properties": { "name": "Cadbury Junction 2", "refs": "198,", "route_nums": "8," }, "geometry": { "type": "Point", "coordinates": [ 72.967116, 19.205397 ] } },
{ "type": "Feature", "properties": { "name": "Castle Mill", "refs": "808,858,1581,1599,1696,1905,1905,1905,2505,2771,3070,3112,3319,4049,", "route_nums": "112,27,51,56,60,61,62,75,89,91,92,93,94,98," }, "geometry": { "type": "Point", "coordinates": [ 72.977187614285711, 19.207308692857143 ] } },
{ "type": "Feature", "properties": { "name": "Castle Mill Naka", "refs": "330,474,", "route_nums": "54,96," }, "geometry": { "type": "Point", "coordinates": [ 72.9774525, 19.2052025 ] } },
{ "type": "Feature", "properties": { "name": "Central Park Nalasopara", "refs": "3602,", "route_nums": "69," }, "geometry": { "type": "Point", "coordinates": [ 72.8183182, 19.4252767 ] } },
{ "type": "Feature", "properties": { "name": "Chamunda", "refs": "3017,4057,", "route_nums": "46,89," }, "geometry": { "type": "Point", "coordinates": [ 73.0080683, 19.23203425 ] } },
{ "type": "Feature", "properties": { "name": "Chandan Naka", "refs": "3597,", "route_nums": "69," }, "geometry": { "type": "Point", "coordinates": [ 72.824232, 19.4150408 ] } },
{ "type": "Feature", "properties": { "name": "Charai", "refs": "469,", "route_nums": "96," }, "geometry": { "type": "Point", "coordinates": [ 72.9720318, 19.1965909 ] } },
{ "type": "Feature", "properties": { "name": "Chedda Nagar", "refs": "3866,", "route_nums": "126," }, "geometry": { "type": "Point", "coordinates": [ 72.9047432, 19.069429 ] } },
{ "type": "Feature", "properties": { "name": "Chena Bridge", "refs": "1136,1724,2788,3568,", "route_nums": "60,65,69,75," }, "geometry": { "type": "Point", "coordinates": [ 72.9164519, 19.2757883 ] } },
{ "type": "Feature", "properties": { "name": "Chendani Koliwada", "refs": "2647,4043,", "route_nums": "70,89," }, "geometry": { "type": "Point", "coordinates": [ 72.97933955, 19.18865415 ] } },
{ "type": "Feature", "properties": { "name": "Chendani Koliwada (CIDCO)", "refs": "3008,", "route_nums": "46," }, "geometry": { "type": "Point", "coordinates": [ 72.9798203, 19.1878495 ] } },
{ "type": "Feature", "properties": { "name": "Chhabhaiya Park", "refs": "479,863,1349,1587,3076,3710,3710,", "route_nums": "85,91,92,93,94,96,98," }, "geometry": { "type": "Point", "coordinates": [ 72.981363412857149, 19.218069821428571 ] } },
{ "type": "Feature", "properties": { "name": "Chhatrapati Shivaji Maharaj Chowk Bhiwandi", "refs": "1469,", "route_nums": "88," }, "geometry": { "type": "Point", "coordinates": [ 73.058535, 19.305275 ] } },
{ "type": "Feature", "properties": { "name": "Chinchoti Naka", "refs": "3578,", "route_nums": "69," }, "geometry": { "type": "Point", "coordinates": [ 72.8966673, 19.3831377 ] } },
{ "type": "Feature", "properties": { "name": "Chintamani Hotel / Jain Temple", "refs": "3685,", "route_nums": "70," }, "geometry": { "type": "Point", "coordinates": [ 73.0516631, 19.1474392 ] } },
{ "type": "Feature", "properties": { "name": "Citi Bank BKC", "refs": "3861,", "route_nums": "126," }, "geometry": { "type": "Point", "coordinates": [ 72.8677573, 19.068893 ] } },
{ "type": "Feature", "properties": { "name": "Civil Hospital", "refs": "143,226,286,328,427,805,855,1502,1502,1502,1578,1597,1693,1781,1822,1902,2146,2349,2446,2502,2965,2972,3068,3109,3442,4103,", "route_nums": "112,12,13,16,2,36,39,40,43,51,54,56,59,6,60,61,62,63,78,87,9,91,92,93,94,98," }, "geometry": { "type": "Point", "coordinates": [ 72.978557742307686, 19.199072796153846 ] } },
{ "type": "Feature", "properties": { "name": "Colour Chem", "refs": "1590,1590,", "route_nums": "91,93," }, "geometry": { "type": "Point", "coordinates": [ 72.9865353, 19.2199835 ] } },
{ "type": "Feature", "properties": { "name": "Cosmos Paradise", "refs": "705,2886,", "route_nums": "122,34," }, "geometry": { "type": "Point", "coordinates": [ 72.9586639, 19.21675105 ] } },
{ "type": "Feature", "properties": { "name": "Dadlani Park", "refs": "1594,1594,", "route_nums": "91,93," }, "geometry": { "type": "Point", "coordinates": [ 72.9965679, 19.2224096 ] } },
{ "type": "Feature", "properties": { "name": "Dadoji Konddev Stadium", "refs": "2648,3009,4044,", "route_nums": "46,70,89," }, "geometry": { "type": "Point", "coordinates": [ 72.980621966666661, 19.1916828 ] } },
{ "type": "Feature", "properties": { "name": "Dahisar Check Naka", "refs": "1734,", "route_nums": "60," }, "geometry": { "type": "Point", "coordinates": [ 72.8718591, 19.2578063 ] } },
{ "type": "Feature", "properties": { "name": "Dahisar Toll Naka", "refs": "1147,", "route_nums": "65," }, "geometry": { "type": "Point", "coordinates": [ 72.87186, 19.257783 ] } },
{ "type": "Feature", "properties": { "name": "Damyanti Smruti", "refs": "1923,", "route_nums": "51," }, "geometry": { "type": "Point", "coordinates": [ 72.979655, 19.26483 ] } },
{ "type": "Feature", "properties": { "name": "Datta Wadi", "refs": "293,1508,1788,2356,2979,3654,4109,", "route_nums": "36,39,40,43,70,78,87," }, "geometry": { "type": "Point", "coordinates": [ 72.998624771428567, 19.200464528571427 ] } },
{ "type": "Feature", "properties": { "name": "Dattu Wadi Mumbra/Sainath Hospital", "refs": "3665,", "route_nums": "70," }, "geometry": { "type": "Point", "coordinates": [ 73.0229105, 19.1930965 ] } },
{ "type": "Feature", "properties": { "name": "Desai Bangla", "refs": "1825,", "route_nums": "6," }, "geometry": { "type": "Point", "coordinates": [ 72.9779724, 19.205182 ] } },
{ "type": "Feature", "properties": { "name": "Devdaya Nagar", "refs": "152,235,704,1012,2885,3248,", "route_nums": "10,110,122,16,34,9," }, "geometry": { "type": "Point", "coordinates": [ 72.957927633333327, 19.214821383333334 ] } },
{ "type": "Feature", "properties": { "name": "Dharamvir Nagar / Happy Valley Circle", "refs": "818,2896,", "route_nums": "122,56," }, "geometry": { "type": "Point", "coordinates": [ 72.97024725, 19.2365532 ] } },
{ "type": "Feature", "properties": { "name": "Dhokali Naka", "refs": "484,868,2198,3716,", "route_nums": "94,95,96,98," }, "geometry": { "type": "Point", "coordinates": [ 72.980295575, 19.227129 ] } },
{ "type": "Feature", "properties": { "name": "Diamond Market BKC", "refs": "3860,", "route_nums": "126," }, "geometry": { "type": "Point", "coordinates": [ 72.8648481, 19.0671101 ] } },
{ "type": "Feature", "properties": { "name": "Diva", "refs": "1520,", "route_nums": "87," }, "geometry": { "type": "Point", "coordinates": [ 73.0280199, 19.2300969 ] } },
{ "type": "Feature", "properties": { "name": "Diva 1 / Diva Gaon / Anjur", "refs": "1452,", "route_nums": "88," }, "geometry": { "type": "Point", "coordinates": [ 73.028117, 19.230215 ] } },
{ "type": "Feature", "properties": { "name": "Diva 2 / Diva Phata / Petrol Pump", "refs": "1453,", "route_nums": "88," }, "geometry": { "type": "Point", "coordinates": [ 73.0327, 19.233342 ] } },
{ "type": "Feature", "properties": { "name": "Diva Phata", "refs": "1521,", "route_nums": "87," }, "geometry": { "type": "Point", "coordinates": [ 73.032814, 19.233422 ] } },
{ "type": "Feature", "properties": { "name": "Diva-Vasai Railway Bridge", "refs": "3576,", "route_nums": "69," }, "geometry": { "type": "Point", "coordinates": [ 72.8934705, 19.3509804 ] } },
{ "type": "Feature", "properties": { "name": "Diwale/Bhandarli Gaon", "refs": "3680,", "route_nums": "70," }, "geometry": { "type": "Point", "coordinates": [ 73.040224, 19.1478887 ] } },
{ "type": "Feature", "properties": { "name": "Dnyan Sarita", "refs": "1301,", "route_nums": "115," }, "geometry": { "type": "Point", "coordinates": [ 72.9493664, 19.2025038 ] } },
{ "type": "Feature", "properties": { "name": "Dnyan Sarita College", "refs": "995,1330,", "route_nums": "110,85," }, "geometry": { "type": "Point", "coordinates": [ 72.9505562, 19.1786092 ] } },
{ "type": "Feature", "properties": { "name": "Dnyaneshwar Nagar", "refs": "160,", "route_nums": "6," }, "geometry": { "type": "Point", "coordinates": [ 72.9575545, 19.2020475 ] } },
{ "type": "Feature", "properties": { "name": "Dnyansadhna College", "refs": "3537,", "route_nums": "69," }, "geometry": { "type": "Point", "coordinates": [ 72.9650392, 19.1838464 ] } },
{ "type": "Feature", "properties": { "name": "Dongri Pada", "refs": "51,342,1118,1709,1918,3124,3457,3552,", "route_nums": "51,53,54,60,61,63,65,69," }, "geometry": { "type": "Point", "coordinates": [ 72.973368475, 19.250588725 ] } },
{ "type": "Feature", "properties": { "name": "Durdwani Kendra", "refs": "3145,", "route_nums": "111," }, "geometry": { "type": "Point", "coordinates": [ 72.95167, 19.1943374 ] } },
{ "type": "Feature", "properties": { "name": "Durgesh Complex", "refs": "3020,", "route_nums": "46," }, "geometry": { "type": "Point", "coordinates": [ 73.0160217, 19.2388295 ] } },
{ "type": "Feature", "properties": { "name": "Durgesh Park", "refs": "1356,1356,3022,", "route_nums": "46,85,89," }, "geometry": { "type": "Point", "coordinates": [ 73.0173597, 19.244155766666665 ] } },
{ "type": "Feature", "properties": { "name": "Dwarka Hotel", "refs": "3596,", "route_nums": "69," }, "geometry": { "type": "Point", "coordinates": [ 72.8259356, 19.4133889 ] } },
{ "type": "Feature", "properties": { "name": "Edenwood", "refs": "441,2893,", "route_nums": "12,122," }, "geometry": { "type": "Point", "coordinates": [ 72.96954865, 19.2279326 ] } },
{ "type": "Feature", "properties": { "name": "Everest World Park", "refs": "3719,", "route_nums": "94," }, "geometry": { "type": "Point", "coordinates": [ 72.9830836, 19.2316556 ] } },
{ "type": "Feature", "properties": { "name": "Evershine City", "refs": "3590,", "route_nums": "69," }, "geometry": { "type": "Point", "coordinates": [ 72.8405577, 19.3994272 ] } },
{ "type": "Feature", "properties": { "name": "Exotica", "refs": "241,", "route_nums": "16," }, "geometry": { "type": "Point", "coordinates": [ 72.948033, 19.231545 ] } },
{ "type": "Feature", "properties": { "name": "Family Court BKC", "refs": "3856,", "route_nums": "126," }, "geometry": { "type": "Point", "coordinates": [ 72.8510504, 19.0560466 ] } },
{ "type": "Feature", "properties": { "name": "Father Wadi", "refs": "3588,", "route_nums": "69," }, "geometry": { "type": "Point", "coordinates": [ 72.8465779, 19.4031094 ] } },
{ "type": "Feature", "properties": { "name": "Fire Station", "refs": "3592,", "route_nums": "69," }, "geometry": { "type": "Point", "coordinates": [ 72.8280577, 19.4055725 ] } },
{ "type": "Feature", "properties": { "name": "Flower Valley", "refs": "3882,", "route_nums": "126," }, "geometry": { "type": "Point", "coordinates": [ 72.9722311, 19.2080375 ] } },
{ "type": "Feature", "properties": { "name": "Forest Avenue", "refs": "3900,", "route_nums": "126," }, "geometry": { "type": "Point", "coordinates": [ 72.9817642, 19.2544461 ] } },
{ "type": "Feature", "properties": { "name": "Forest Avenue / Arcadia", "refs": "89,", "route_nums": "52," }, "geometry": { "type": "Point", "coordinates": [ 72.981757, 19.2544619 ] } },
{ "type": "Feature", "properties": { "name": "Forest Office", "refs": "278,658,2341,", "route_nums": "23,43,78," }, "geometry": { "type": "Point", "coordinates": [ 72.964563666666663, 19.1890176 ] } },
{ "type": "Feature", "properties": { "name": "Fountain Hotel", "refs": "1138,", "route_nums": "65," }, "geometry": { "type": "Point", "coordinates": [ 72.904488, 19.284958 ] } },
{ "type": "Feature", "properties": { "name": "Gaimukh", "refs": "1134,1722,2786,3566,", "route_nums": "60,65,69,75," }, "geometry": { "type": "Point", "coordinates": [ 72.936291225, 19.285107825 ] } },
{ "type": "Feature", "properties": { "name": "Gaimukh Mandir / Jagannath Mahadev Temple", "refs": "1721,3565,", "route_nums": "60,69," }, "geometry": { "type": "Point", "coordinates": [ 72.9411814, 19.28513925 ] } },
{ "type": "Feature", "properties": { "name": "Gandhi Nagar", "refs": "436,1020,2155,", "route_nums": "110,12,59," }, "geometry": { "type": "Point", "coordinates": [ 72.97033776666666, 19.218147633333334 ] } },
{ "type": "Feature", "properties": { "name": "Ganesh Nagar", "refs": "1736,", "route_nums": "60," }, "geometry": { "type": "Point", "coordinates": [ 72.86497833, 19.247235 ] } },
{ "type": "Feature", "properties": { "name": "Ganesh Nagar / Gokul Anand Hotel Borivali East", "refs": "1149,", "route_nums": "65," }, "geometry": { "type": "Point", "coordinates": [ 72.864763, 19.244507 ] } },
{ "type": "Feature", "properties": { "name": "Gaondevi Mandir Kopri", "refs": "3133,3534,", "route_nums": "111,69," }, "geometry": { "type": "Point", "coordinates": [ 72.97240935, 19.18452295 ] } },
{ "type": "Feature", "properties": { "name": "Garden Est.", "refs": "898,", "route_nums": "56A," }, "geometry": { "type": "Point", "coordinates": [ 72.9677063, 19.2328841 ] } },
{ "type": "Feature", "properties": { "name": "Garden Estate", "refs": "820,", "route_nums": "56," }, "geometry": { "type": "Point", "coordinates": [ 72.9676992, 19.2328845 ] } },
{ "type": "Feature", "properties": { "name": "Garib Nagar", "refs": "59,1717,2784,", "route_nums": "53,60,75," }, "geometry": { "type": "Point", "coordinates": [ 72.963061566666667, 19.272122533333334 ] } },
{ "type": "Feature", "properties": { "name": "Gawand Baug", "refs": "710,1017,3255,", "route_nums": "10,110,34," }, "geometry": { "type": "Point", "coordinates": [ 72.95868986666666, 19.225077733333336 ] } },
{ "type": "Feature", "properties": { "name": "Ghartan Pada", "refs": "1735,", "route_nums": "60," }, "geometry": { "type": "Point", "coordinates": [ 72.8679406, 19.2517932 ] } },
{ "type": "Feature", "properties": { "name": "Ghodbunder Village", "refs": "1140,1727,2791,", "route_nums": "60,65,75," }, "geometry": { "type": "Point", "coordinates": [ 72.893255599999989, 19.2868213 ] } },
{ "type": "Feature", "properties": { "name": "Gholai Nagar", "refs": "3178,", "route_nums": "82," }, "geometry": { "type": "Point", "coordinates": [ 73.01288167, 19.20434167 ] } },
{ "type": "Feature", "properties": { "name": "Godrej Soaps", "refs": "3870,", "route_nums": "126," }, "geometry": { "type": "Point", "coordinates": [ 72.9257544, 19.0932736 ] } },
{ "type": "Feature", "properties": { "name": "Gokhivare Talav Vasai", "refs": "3589,", "route_nums": "69," }, "geometry": { "type": "Point", "coordinates": [ 72.843235, 19.4003676 ] } },
{ "type": "Feature", "properties": { "name": "Gokul Anand Hotel Borivali East", "refs": "1737,", "route_nums": "60," }, "geometry": { "type": "Point", "coordinates": [ 72.8647346, 19.2445083 ] } },
{ "type": "Feature", "properties": { "name": "Gokulngar", "refs": "887,", "route_nums": "56A," }, "geometry": { "type": "Point", "coordinates": [ 72.9770214, 19.2093518 ] } },
{ "type": "Feature", "properties": { "name": "Golden Chemicals", "refs": "1146,", "route_nums": "65," }, "geometry": { "type": "Point", "coordinates": [ 72.873773, 19.262148 ] } },
{ "type": "Feature", "properties": { "name": "Golden Chemicals / Thakur Mall", "refs": "1733,", "route_nums": "60," }, "geometry": { "type": "Point", "coordinates": [ 72.8737912, 19.262133 ] } },
{ "type": "Feature", "properties": { "name": "Green Park / Pleasant Park", "refs": "2795,", "route_nums": "75," }, "geometry": { "type": "Point", "coordinates": [ 72.8788423, 19.2784498 ] } },
{ "type": "Feature", "properties": { "name": "Gurukul Society", "refs": "2297,", "route_nums": "20," }, "geometry": { "type": "Point", "coordinates": [ 72.964496, 19.1957706 ] } },
{ "type": "Feature", "properties": { "name": "Gyan Sarita", "refs": "2547,", "route_nums": "104," }, "geometry": { "type": "Point", "coordinates": [ 72.9505489, 19.1786076 ] } },
{ "type": "Feature", "properties": { "name": "Gyaneshvar Nagar", "refs": "1770,", "route_nums": "36," }, "geometry": { "type": "Point", "coordinates": [ 72.9575554, 19.202041 ] } },
{ "type": "Feature", "properties": { "name": "Gynan Sadhana College", "refs": "1101,3136,3877,", "route_nums": "111,126,65," }, "geometry": { "type": "Point", "coordinates": [ 72.964721833333343, 19.184536466666668 ] } },
{ "type": "Feature", "properties": { "name": "Hanuman Complex", "refs": "1355,3021,4059,", "route_nums": "46,85,89," }, "geometry": { "type": "Point", "coordinates": [ 73.016731466666656, 19.2415403 ] } },
{ "type": "Feature", "properties": { "name": "Hardas Nagar", "refs": "1108,1346,", "route_nums": "65,85," }, "geometry": { "type": "Point", "coordinates": [ 72.9770403, 19.21295575 ] } },
{ "type": "Feature", "properties": { "name": "Hari Nivas", "refs": "279,2185,", "route_nums": "43,95," }, "geometry": { "type": "Point", "coordinates": [ 72.9668995, 19.19053415 ] } },
{ "type": "Feature", "properties": { "name": "Harinivas", "refs": "880,", "route_nums": "56A," }, "geometry": { "type": "Point", "coordinates": [ 72.9676948, 19.1904625 ] } },
{ "type": "Feature", "properties": { "name": "Hawre City / Boriwade Gaon", "refs": "3131,", "route_nums": "61," }, "geometry": { "type": "Point", "coordinates": [ 72.9599772, 19.2624355 ] } },
{ "type": "Feature", "properties": { "name": "Highland Park", "refs": "482,866,3078,3715,", "route_nums": "92,94,96,98," }, "geometry": { "type": "Point", "coordinates": [ 72.9822369, 19.222242825 ] } },
{ "type": "Feature", "properties": { "name": "Highway Darshan", "refs": "39,69,193,", "route_nums": "52,53,8," }, "geometry": { "type": "Point", "coordinates": [ 72.963197366666677, 19.189383066666668 ] } },
{ "type": "Feature", "properties": { "name": "Highway Darshan Society", "refs": "1103,1338,", "route_nums": "65,85," }, "geometry": { "type": "Point", "coordinates": [ 72.9631606, 19.18935685 ] } },
{ "type": "Feature", "properties": { "name": "Hill Garden", "refs": "822,900,", "route_nums": "56,56A," }, "geometry": { "type": "Point", "coordinates": [ 72.9662195, 19.2350208 ] } },
{ "type": "Feature", "properties": { "name": "Hiranandani", "refs": "3901,", "route_nums": "126," }, "geometry": { "type": "Point", "coordinates": [ 72.9839589, 19.2571467 ] } },
{ "type": "Feature", "properties": { "name": "Hiranandani Garden", "refs": "91,", "route_nums": "52," }, "geometry": { "type": "Point", "coordinates": [ 72.9781819, 19.2574678 ] } },
{ "type": "Feature", "properties": { "name": "Hiranandani Meadows", "refs": "1024,", "route_nums": "110," }, "geometry": { "type": "Point", "coordinates": [ 72.9695615, 19.2279324 ] } },
{ "type": "Feature", "properties": { "name": "Holly Cross School", "refs": "807,2504,2967,3111,3708,3708,4048,", "route_nums": "2,56,61,62,89,93,94," }, "geometry": { "type": "Point", "coordinates": [ 72.978712742857141, 19.203426271428572 ] } },
{ "type": "Feature", "properties": { "name": "Holy Cross School", "refs": "857,1580,1695,1904,3318,3444,", "route_nums": "27,51,60,63,91,98," }, "geometry": { "type": "Point", "coordinates": [ 72.978714533333331, 19.203426966666665 ] } },
{ "type": "Feature", "properties": { "name": "Holy Mary High School", "refs": "1363,", "route_nums": "85," }, "geometry": { "type": "Point", "coordinates": [ 73.0324527, 19.2644072 ] } },
{ "type": "Feature", "properties": { "name": "Hyder Park Society", "refs": "1912,", "route_nums": "51," }, "geometry": { "type": "Point", "coordinates": [ 72.97715833, 19.22505667 ] } },
{ "type": "Feature", "properties": { "name": "Ice Factory", "refs": "36,280,655,1572,1776,1816,2343,3236,", "route_nums": "10,23,36,43,53,6,78,91," }, "geometry": { "type": "Point", "coordinates": [ 72.968688025, 19.187322625 ] } },
{ "type": "Feature", "properties": { "name": "ICICI Bank BKC", "refs": "3859,", "route_nums": "126," }, "geometry": { "type": "Point", "coordinates": [ 72.8614105, 19.0649385 ] } },
{ "type": "Feature", "properties": { "name": "Imperial Sqaure", "refs": "1132,", "route_nums": "65," }, "geometry": { "type": "Point", "coordinates": [ 72.947311, 19.284241 ] } },
{ "type": "Feature", "properties": { "name": "Income Tax Office", "refs": "38,68,1571,", "route_nums": "52,53,91," }, "geometry": { "type": "Point", "coordinates": [ 72.964735633333333, 19.1880331 ] } },
{ "type": "Feature", "properties": { "name": "ITI Circle", "refs": "3148,", "route_nums": "111," }, "geometry": { "type": "Point", "coordinates": [ 72.9431335, 19.1953687 ] } },
{ "type": "Feature", "properties": { "name": "ITI Thane", "refs": "2537,", "route_nums": "104," }, "geometry": { "type": "Point", "coordinates": [ 72.9430932, 19.1955294 ] } },
{ "type": "Feature", "properties": { "name": "J K Gram", "refs": "148,231,700,", "route_nums": "16,34,9," }, "geometry": { "type": "Point", "coordinates": [ 72.964178833333335, 19.207946966666668 ] } },
{ "type": "Feature", "properties": { "name": "Jablinaka", "refs": "1820,", "route_nums": "6," }, "geometry": { "type": "Point", "coordinates": [ 72.97671, 19.1937987 ] } },
{ "type": "Feature", "properties": { "name": "Jagannath Mahadev Temple", "refs": "1133,", "route_nums": "65," }, "geometry": { "type": "Point", "coordinates": [ 72.941204, 19.285144 ] } },
{ "type": "Feature", "properties": { "name": "Jai Bhawani Nagar", "refs": "669,1004,2264,2875,", "route_nums": "102,110,122,23," }, "geometry": { "type": "Point", "coordinates": [ 72.95368405, 19.202420775 ] } },
{ "type": "Feature", "properties": { "name": "Jakat Naka", "refs": "1465,", "route_nums": "88," }, "geometry": { "type": "Point", "coordinates": [ 73.065042, 19.298945 ] } },
{ "type": "Feature", "properties": { "name": "Jalim Kura Mandir / Kismat Colony", "refs": "2752,", "route_nums": "75," }, "geometry": { "type": "Point", "coordinates": [ 73.0234517, 19.1720223 ] } },
{ "type": "Feature", "properties": { "name": "Jambli Naka", "refs": "2963,", "route_nums": "2," }, "geometry": { "type": "Point", "coordinates": [ 72.97677, 19.19367333 ] } },
{ "type": "Feature", "properties": { "name": "Jawahar Nagar", "refs": "437,1021,2156,", "route_nums": "110,12,59," }, "geometry": { "type": "Point", "coordinates": [ 72.97015566666667, 19.220250066666665 ] } },
{ "type": "Feature", "properties": { "name": "Johnson Company", "refs": "276,660,1336,1442,1569,2339,3139,", "route_nums": "111,23,43,78,85,88,91," }, "geometry": { "type": "Point", "coordinates": [ 72.961133985714284, 19.186872471428575 ] } },
{ "type": "Feature", "properties": { "name": "Jupiter Hospital", "refs": "73,1107,1345,1447,3542,", "route_nums": "52,65,69,85,88," }, "geometry": { "type": "Point", "coordinates": [ 72.973128179999989, 19.2089865 ] } },
{ "type": "Feature", "properties": { "name": "Jyotiba Phule Nagar / Sukur Park", "refs": "292,", "route_nums": "43," }, "geometry": { "type": "Point", "coordinates": [ 72.9953232, 19.198808 ] } },
{ "type": "Feature", "properties": { "name": "Kajupada", "refs": "1135,1723,2787,3567,", "route_nums": "60,65,69,75," }, "geometry": { "type": "Point", "coordinates": [ 72.92257655, 19.278768425 ] } },
{ "type": "Feature", "properties": { "name": "Kajuwadi", "refs": "2300,", "route_nums": "20," }, "geometry": { "type": "Point", "coordinates": [ 72.9604217, 19.1974456 ] } },
{ "type": "Feature", "properties": { "name": "Kalher", "refs": "1357,3023,4060,", "route_nums": "46,85,89," }, "geometry": { "type": "Point", "coordinates": [ 73.017798133333329, 19.247036566666669 ] } },
{ "type": "Feature", "properties": { "name": "Kalher Pipe Line", "refs": "3024,", "route_nums": "46," }, "geometry": { "type": "Point", "coordinates": [ 73.0180152, 19.2513182 ] } },
{ "type": "Feature", "properties": { "name": "Kalsekar College", "refs": "2381,", "route_nums": "78," }, "geometry": { "type": "Point", "coordinates": [ 73.0306463, 19.1592895 ] } },
{ "type": "Feature", "properties": { "name": "Kalsekar College / K.V.K.", "refs": "2380,3678,", "route_nums": "70,78," }, "geometry": { "type": "Point", "coordinates": [ 73.02929625, 19.16164245 ] } },
{ "type": "Feature", "properties": { "name": "Kalwa Depot", "refs": "2450,", "route_nums": "13," }, "geometry": { "type": "Point", "coordinates": [ 72.9881322, 19.1913122 ] } },
{ "type": "Feature", "properties": { "name": "Kalwa Naka", "refs": "289,1505,1784,2352,2449,2767,2975,3345,4106,", "route_nums": "13,36,39,40,43,70,75,78,87," }, "geometry": { "type": "Point", "coordinates": [ 72.987469244444441, 19.19613198888889 ] } },
{ "type": "Feature", "properties": { "name": "Kalwa Railway Station", "refs": "3173,", "route_nums": "82," }, "geometry": { "type": "Point", "coordinates": [ 72.998855, 19.19635333 ] } },
{ "type": "Feature", "properties": { "name": "Kalyan Bypass", "refs": "1459,", "route_nums": "88," }, "geometry": { "type": "Point", "coordinates": [ 73.082953, 19.269858 ] } },
{ "type": "Feature", "properties": { "name": "Kalyan Naka", "refs": "1464,", "route_nums": "88," }, "geometry": { "type": "Point", "coordinates": [ 73.06349, 19.29622 ] } },
{ "type": "Feature", "properties": { "name": "Kalyan Phata", "refs": "3684,", "route_nums": "70," }, "geometry": { "type": "Point", "coordinates": [ 73.0471665, 19.1437076 ] } },
{ "type": "Feature", "properties": { "name": "Kamagar Hospital Mulund", "refs": "1331,2255,2866,", "route_nums": "102,122,85," }, "geometry": { "type": "Point", "coordinates": [ 72.945275966666657, 19.1792004 ] } },
{ "type": "Feature", "properties": { "name": "Kamgar Hospital Mulund", "refs": "996,", "route_nums": "110," }, "geometry": { "type": "Point", "coordinates": [ 72.9452857, 19.1791996 ] } },
{ "type": "Feature", "properties": { "name": "Kanhaji Agrh Chowk", "refs": "288,1504,1783,2351,2448,2974,3010,4045,4105,", "route_nums": "13,36,39,40,43,46,78,87,89," }, "geometry": { "type": "Point", "coordinates": [ 72.983180888888896, 19.197315422222218 ] } },
{ "type": "Feature", "properties": { "name": "Kanjur Marg Village", "refs": "3874,", "route_nums": "126," }, "geometry": { "type": "Point", "coordinates": [ 72.9415248, 19.130324 ] } },
{ "type": "Feature", "properties": { "name": "Kannamwar Nagar", "refs": "3872,", "route_nums": "126," }, "geometry": { "type": "Point", "coordinates": [ 72.9352717, 19.116474 ] } },
{ "type": "Feature", "properties": { "name": "Kapadia Nagar", "refs": "3864,", "route_nums": "126," }, "geometry": { "type": "Point", "coordinates": [ 72.872478, 19.0752241 ] } },
{ "type": "Feature", "properties": { "name": "Kasarvadavali", "refs": "352,", "route_nums": "54," }, "geometry": { "type": "Point", "coordinates": [ 72.9689124, 19.2752543 ] } },
{ "type": "Feature", "properties": { "name": "Kasarvadavali / Sainik Shala", "refs": "350,", "route_nums": "54," }, "geometry": { "type": "Point", "coordinates": [ 72.9667063, 19.271032 ] } },
{ "type": "Feature", "properties": { "name": "Kasarvadavali Naka", "refs": "349,1125,1716,3559,", "route_nums": "54,60,65,69," }, "geometry": { "type": "Point", "coordinates": [ 72.9653707, 19.269391575 ] } },
{ "type": "Feature", "properties": { "name": "Kasheli", "refs": "3019,", "route_nums": "46," }, "geometry": { "type": "Point", "coordinates": [ 73.0147329, 19.2362347 ] } },
{ "type": "Feature", "properties": { "name": "Kasheli Gaon", "refs": "1354,4058,", "route_nums": "85,89," }, "geometry": { "type": "Point", "coordinates": [ 73.01474285, 19.2362345 ] } },
{ "type": "Feature", "properties": { "name": "Kasheli Toll Naka", "refs": "1353,1353,3018,", "route_nums": "46,85,89," }, "geometry": { "type": "Point", "coordinates": [ 73.012508833333342, 19.234725266666665 ] } },
{ "type": "Feature", "properties": { "name": "Kashi Village", "refs": "1142,1729,2793,", "route_nums": "60,65,75," }, "geometry": { "type": "Point", "coordinates": [ 72.886002266666665, 19.274136833333333 ] } },
{ "type": "Feature", "properties": { "name": "Kashimira", "refs": "1143,1730,2794,", "route_nums": "60,65,75," }, "geometry": { "type": "Point", "coordinates": [ 72.882294166666668, 19.271491233333332 ] } },
{ "type": "Feature", "properties": { "name": "Kashish Park", "refs": "275,661,1335,1441,1568,2338,3140,", "route_nums": "111,23,43,78,85,88,91," }, "geometry": { "type": "Point", "coordinates": [ 72.958159814285708, 19.185908757142858 ] } },
{ "type": "Feature", "properties": { "name": "Kavyadhara / Siddheshwar Garden", "refs": "869,3717,", "route_nums": "94,98," }, "geometry": { "type": "Point", "coordinates": [ 72.9822475, 19.2283813 ] } },
{ "type": "Feature", "properties": { "name": "Khandagale Estate", "refs": "1361,4064,", "route_nums": "85,89," }, "geometry": { "type": "Point", "coordinates": [ 73.0290102, 19.26105925 ] } },
{ "type": "Feature", "properties": { "name": "Khandelwal", "refs": "237,", "route_nums": "16," }, "geometry": { "type": "Point", "coordinates": [ 72.954367, 19.21722 ] } },
{ "type": "Feature", "properties": { "name": "Khandelwal Estate", "refs": "1014,3250,", "route_nums": "10,110," }, "geometry": { "type": "Point", "coordinates": [ 72.95383805, 19.2175503 ] } },
{ "type": "Feature", "properties": { "name": "Kharegaon Fatak", "refs": "3174,", "route_nums": "82," }, "geometry": { "type": "Point", "coordinates": [ 73.0038331, 19.2005304 ] } },
{ "type": "Feature", "properties": { "name": "Kharegaon Naka", "refs": "294,1509,1789,2357,2763,2980,3655,4110,", "route_nums": "36,39,40,43,70,75,78,87," }, "geometry": { "type": "Point", "coordinates": [ 73.001399375, 19.2018166 ] } },
{ "type": "Feature", "properties": { "name": "Kharegaon Pakhadi", "refs": "295,", "route_nums": "43," }, "geometry": { "type": "Point", "coordinates": [ 73.001542, 19.2031855 ] } },
{ "type": "Feature", "properties": { "name": "Khevra Cercal", "refs": "897,", "route_nums": "56A," }, "geometry": { "type": "Point", "coordinates": [ 72.9702808, 19.2320547 ] } },
{ "type": "Feature", "properties": { "name": "Khewra Circle", "refs": "819,2895,", "route_nums": "122,56," }, "geometry": { "type": "Point", "coordinates": [ 72.96977535, 19.2325893 ] } },
{ "type": "Feature", "properties": { "name": "Khidkali Temple", "refs": "3688,", "route_nums": "70," }, "geometry": { "type": "Point", "coordinates": [ 73.0640759, 19.1566036 ] } },
{ "type": "Feature", "properties": { "name": "Khirkali", "refs": "3603,", "route_nums": "70," }, "geometry": { "type": "Point", "coordinates": [ 73.0674254, 19.158929 ] } },
{ "type": "Feature", "properties": { "name": "Khopat", "refs": "145,228,697,3241,", "route_nums": "10,16,34,9," }, "geometry": { "type": "Point", "coordinates": [ 72.972099175, 19.20298685 ] } },
{ "type": "Feature", "properties": { "name": "Khopat S.T. Workshop", "refs": "471,696,3240,", "route_nums": "10,34,96," }, "geometry": { "type": "Point", "coordinates": [ 72.9732972, 19.200769533333332 ] } },
{ "type": "Feature", "properties": { "name": "Kinara Dhaba", "refs": "3571,", "route_nums": "69," }, "geometry": { "type": "Point", "coordinates": [ 72.9043072, 19.3020694 ] } },
{ "type": "Feature", "properties": { "name": "Kismat Colony", "refs": "2376,3673,", "route_nums": "70,78," }, "geometry": { "type": "Point", "coordinates": [ 73.0236233, 19.1719926 ] } },
{ "type": "Feature", "properties": { "name": "KMS / N G Regency", "refs": "4056,", "route_nums": "89," }, "geometry": { "type": "Point", "coordinates": [ 72.9979881, 19.226808 ] } },
{ "type": "Feature", "properties": { "name": "Koknipada", "refs": "899,", "route_nums": "56A," }, "geometry": { "type": "Point", "coordinates": [ 72.9653875, 19.2336588 ] } },
{ "type": "Feature", "properties": { "name": "Kolbad", "refs": "473,885,2190,", "route_nums": "56A,95,96," }, "geometry": { "type": "Point", "coordinates": [ 72.977162866666674, 19.2040642 ] } },
{ "type": "Feature", "properties": { "name": "Kolshet Gaon", "refs": "875,2205,", "route_nums": "95,98," }, "geometry": { "type": "Point", "coordinates": [ 72.9908056, 19.23910435 ] } },
{ "type": "Feature", "properties": { "name": "Kopar", "refs": "1359,3025,4062,", "route_nums": "46,85,89," }, "geometry": { "type": "Point", "coordinates": [ 73.021168666666668, 19.2526885 ] } },
{ "type": "Feature", "properties": { "name": "Koras Company", "refs": "2881,", "route_nums": "122," }, "geometry": { "type": "Point", "coordinates": [ 72.9612842, 19.2093138 ] } },
{ "type": "Feature", "properties": { "name": "Kores Nakshtra", "refs": "1008,", "route_nums": "110," }, "geometry": { "type": "Point", "coordinates": [ 72.9612848, 19.2093207 ] } },
{ "type": "Feature", "properties": { "name": "Korum Mall", "refs": "1342,", "route_nums": "85," }, "geometry": { "type": "Point", "coordinates": [ 72.9656891, 19.2016665 ] } },
{ "type": "Feature", "properties": { "name": "Kousa", "refs": "2750,", "route_nums": "75," }, "geometry": { "type": "Point", "coordinates": [ 73.026919, 19.1664791 ] } },
{ "type": "Feature", "properties": { "name": "Kousa Gaon", "refs": "2378,2378,", "route_nums": "70,78," }, "geometry": { "type": "Point", "coordinates": [ 73.0271026, 19.1664807 ] } },
{ "type": "Feature", "properties": { "name": "Kousa Jama Masjid", "refs": "2749,3676,", "route_nums": "70,75," }, "geometry": { "type": "Point", "coordinates": [ 73.02837185, 19.1644306 ] } },
{ "type": "Feature", "properties": { "name": "Lakshmi Narayan Residency", "refs": "706,", "route_nums": "34," }, "geometry": { "type": "Point", "coordinates": [ 72.9601216, 19.2202204 ] } },
{ "type": "Feature", "properties": { "name": "Lalit Clinic", "refs": "2371,3668,", "route_nums": "70,78," }, "geometry": { "type": "Point", "coordinates": [ 73.02131145, 19.18579105 ] } },
{ "type": "Feature", "properties": { "name": "Laxmi Industry", "refs": "3582,", "route_nums": "69," }, "geometry": { "type": "Point", "coordinates": [ 72.8678862, 19.4071214 ] } },
{ "type": "Feature", "properties": { "name": "Laxmi Nagar", "refs": "1344,", "route_nums": "85," }, "geometry": { "type": "Point", "coordinates": [ 72.9704236, 19.2063901 ] } },
{ "type": "Feature", "properties": { "name": "Laxmi Narayan Society", "refs": "2887,", "route_nums": "122," }, "geometry": { "type": "Point", "coordinates": [ 72.9598138, 19.2194752 ] } },
{ "type": "Feature", "properties": { "name": "Laxmi Park", "refs": "1308,", "route_nums": "115," }, "geometry": { "type": "Point", "coordinates": [ 72.9552753, 19.212017 ] } },
{ "type": "Feature", "properties": { "name": "Leonard", "refs": "3899,", "route_nums": "126," }, "geometry": { "type": "Point", "coordinates": [ 72.9792038, 19.2497876 ] } },
{ "type": "Feature", "properties": { "name": "LIC Thane Divisional Office", "refs": "1339,", "route_nums": "85," }, "geometry": { "type": "Point", "coordinates": [ 72.962642, 19.193802 ] } },
{ "type": "Feature", "properties": { "name": "Little Angel School", "refs": "351,", "route_nums": "54," }, "geometry": { "type": "Point", "coordinates": [ 72.967853, 19.272798 ] } },
{ "type": "Feature", "properties": { "name": "Lockim / R Mall", "refs": "893,", "route_nums": "56A," }, "geometry": { "type": "Point", "coordinates": [ 72.9765499, 19.2298509 ] } },
{ "type": "Feature", "properties": { "name": "Lockim Company", "refs": "1113,", "route_nums": "65," }, "geometry": { "type": "Point", "coordinates": [ 72.97659, 19.229835 ] } },
{ "type": "Feature", "properties": { "name": "Lockim Company / R Mall", "refs": "815,1704,2512,3889,", "route_nums": "126,56,60,62," }, "geometry": { "type": "Point", "coordinates": [ 72.976550925, 19.229849925 ] } },
{ "type": "Feature", "properties": { "name": "Lodha", "refs": "1605,", "route_nums": "112," }, "geometry": { "type": "Point", "coordinates": [ 72.9844064, 19.214334 ] } },
{ "type": "Feature", "properties": { "name": "Lodha / Saket", "refs": "1449,", "route_nums": "88," }, "geometry": { "type": "Point", "coordinates": [ 72.985838, 19.210705 ] } },
{ "type": "Feature", "properties": { "name": "Lodha Complex", "refs": "1604,", "route_nums": "112," }, "geometry": { "type": "Point", "coordinates": [ 72.9843527, 19.2132279 ] } },
{ "type": "Feature", "properties": { "name": "Lodha Dham", "refs": "3575,", "route_nums": "69," }, "geometry": { "type": "Point", "coordinates": [ 72.893543, 19.3382213 ] } },
{ "type": "Feature", "properties": { "name": "Lodha Gate", "refs": "1603,", "route_nums": "112," }, "geometry": { "type": "Point", "coordinates": [ 72.9844518, 19.2115993 ] } },
{ "type": "Feature", "properties": { "name": "Lok Puram", "refs": "440,1023,2892,", "route_nums": "110,12,122," }, "geometry": { "type": "Point", "coordinates": [ 72.9696857, 19.2246616 ] } },
{ "type": "Feature", "properties": { "name": "Lokim Company / R Mall", "refs": "78,337,1913,2778,3119,3452,3547,", "route_nums": "51,52,54,61,63,69,75," }, "geometry": { "type": "Point", "coordinates": [ 72.976553328571427, 19.229864985714283 ] } },
{ "type": "Feature", "properties": { "name": "Lokim Company/ R Mall", "refs": "47,", "route_nums": "53," }, "geometry": { "type": "Point", "coordinates": [ 72.9768789, 19.2301967 ] } },
{ "type": "Feature", "properties": { "name": "Lokmanya Nagar", "refs": "673,1304,1313,1767,", "route_nums": "102,115,23,36," }, "geometry": { "type": "Point", "coordinates": [ 72.9522498, 19.20938755 ] } },
{ "type": "Feature", "properties": { "name": "Louiswadi", "refs": "40,70,194,1104,1444,2299,3539,3879,", "route_nums": "126,20,52,53,65,69,8,88," }, "geometry": { "type": "Point", "coordinates": [ 72.962360662500004, 19.195795737499999 ] } },
{ "type": "Feature", "properties": { "name": "Lousiwadi", "refs": "1340,", "route_nums": "85," }, "geometry": { "type": "Point", "coordinates": [ 72.9623414, 19.1956483 ] } },
{ "type": "Feature", "properties": { "name": "M. I. D. C", "refs": "3143,", "route_nums": "111," }, "geometry": { "type": "Point", "coordinates": [ 72.9552524, 19.191099 ] } },
{ "type": "Feature", "properties": { "name": "M.I.D.C", "refs": "1000,1296,1566,2335,2541,", "route_nums": "104,110,115,78,91," }, "geometry": { "type": "Point", "coordinates": [ 72.955369480000016, 19.19113738 ] } },
{ "type": "Feature", "properties": { "name": "M.I.D.C.", "refs": "273,664,", "route_nums": "23,43," }, "geometry": { "type": "Point", "coordinates": [ 72.9553348, 19.19116785 ] } },
{ "type": "Feature", "properties": { "name": "Mahagiri Koliwada", "refs": "3343,3650,", "route_nums": "70,89," }, "geometry": { "type": "Point", "coordinates": [ 72.982731550000011, 19.1944722 ] } },
{ "type": "Feature", "properties": { "name": "Mahapalika Bhavan", "refs": "1811,", "route_nums": "6," }, "geometry": { "type": "Point", "coordinates": [ 72.9675121, 19.1971875 ] } },
{ "type": "Feature", "properties": { "name": "Mahapalika Bhawan", "refs": "1773,", "route_nums": "36," }, "geometry": { "type": "Point", "coordinates": [ 72.9681109, 19.1977905 ] } },
{ "type": "Feature", "properties": { "name": "Maharashtra Nagar", "refs": "2894,", "route_nums": "122," }, "geometry": { "type": "Point", "coordinates": [ 72.97007, 19.229755 ] } },
{ "type": "Feature", "properties": { "name": "Mahavishnu Mandir Samrat", "refs": "1145,", "route_nums": "65," }, "geometry": { "type": "Point", "coordinates": [ 72.875771, 19.265143 ] } },
{ "type": "Feature", "properties": { "name": "Majiwada Gaon", "refs": "3302,", "route_nums": "27," }, "geometry": { "type": "Point", "coordinates": [ 72.9816729, 19.2139249 ] } },
{ "type": "Feature", "properties": { "name": "Majiwada Gaon Corner", "refs": "3324,", "route_nums": "27," }, "geometry": { "type": "Point", "coordinates": [ 72.9781701, 19.2150849 ] } },
{ "type": "Feature", "properties": { "name": "Makhamali Talav", "refs": "470,695,2187,3239,", "route_nums": "10,34,95,96," }, "geometry": { "type": "Point", "coordinates": [ 72.971712, 19.19845345 ] } },
{ "type": "Feature", "properties": { "name": "Malhar Cinema", "refs": "37,67,", "route_nums": "52,53," }, "geometry": { "type": "Point", "coordinates": [ 72.9669859, 19.18745545 ] } },
{ "type": "Feature", "properties": { "name": "Manisha Nagar", "refs": "290,1506,1785,2353,2766,2976,3651,4107,", "route_nums": "36,39,40,43,70,75,78,87," }, "geometry": { "type": "Point", "coordinates": [ 72.9909174, 19.1968623 ] } },
{ "type": "Feature", "properties": { "name": "Mankoli", "refs": "1522,", "route_nums": "87," }, "geometry": { "type": "Point", "coordinates": [ 73.0409121, 19.2405282 ] } },
{ "type": "Feature", "properties": { "name": "Mankoli Naka", "refs": "1454,", "route_nums": "88," }, "geometry": { "type": "Point", "coordinates": [ 73.041905, 19.241392 ] } },
{ "type": "Feature", "properties": { "name": "Manorama Nagar", "refs": "486,", "route_nums": "96," }, "geometry": { "type": "Point", "coordinates": [ 72.98026, 19.23195 ] } },
{ "type": "Feature", "properties": { "name": "Manpada", "refs": "48,79,338,816,894,1114,1705,1914,2513,2779,2898,3120,3453,3548,3890,", "route_nums": "122,126,51,52,53,54,56,56A,60,61,62,63,65,69,75," }, "geometry": { "type": "Point", "coordinates": [ 72.975896293333321, 19.235007033333332 ] } },
{ "type": "Feature", "properties": { "name": "Maratha Punjab, Madvi Chowk", "refs": "4066,", "route_nums": "89," }, "geometry": { "type": "Point", "coordinates": [ 73.0387163, 19.2703869 ] } },
{ "type": "Feature", "properties": { "name": "Mhada Vasahat", "refs": "2891,", "route_nums": "122," }, "geometry": { "type": "Point", "coordinates": [ 72.9697667, 19.2226363 ] } },
{ "type": "Feature", "properties": { "name": "Mhatre Wadi / Patil Wadi", "refs": "3686,", "route_nums": "70," }, "geometry": { "type": "Point", "coordinates": [ 73.0550646, 19.1499268 ] } },
{ "type": "Feature", "properties": { "name": "Millenium Hospital / Shimla Park", "refs": "2379,3677,", "route_nums": "70,78," }, "geometry": { "type": "Point", "coordinates": [ 73.02861515, 19.16343415 ] } },
{ "type": "Feature", "properties": { "name": "Mini Punjab", "refs": "1455,", "route_nums": "88," }, "geometry": { "type": "Point", "coordinates": [ 73.054803, 19.2509 ] } },
{ "type": "Feature", "properties": { "name": "Mira Gaothan", "refs": "1731,", "route_nums": "60," }, "geometry": { "type": "Point", "coordinates": [ 72.8775482, 19.2675807 ] } },
{ "type": "Feature", "properties": { "name": "Mira Road Station", "refs": "2797,", "route_nums": "75," }, "geometry": { "type": "Point", "coordinates": [ 72.8580994, 19.2813686 ] } },
{ "type": "Feature", "properties": { "name": "Mithagar", "refs": "3875,", "route_nums": "126," }, "geometry": { "type": "Point", "coordinates": [ 72.9639853, 19.1654746 ] } },
{ "type": "Feature", "properties": { "name": "Mkhamali Talav", "refs": "882,", "route_nums": "56A," }, "geometry": { "type": "Point", "coordinates": [ 72.9717156, 19.1984526 ] } },
{ "type": "Feature", "properties": { "name": "Mohammad Estate", "refs": "3863,", "route_nums": "126," }, "geometry": { "type": "Point", "coordinates": [ 72.8709304, 19.0738154 ] } },
{ "type": "Feature", "properties": { "name": "Monalisa Lawns", "refs": "3130,", "route_nums": "61," }, "geometry": { "type": "Point", "coordinates": [ 72.9598, 19.26169667 ] } },
{ "type": "Feature", "properties": { "name": "MTNL Telephone Exchange BKC", "refs": "3862,", "route_nums": "126," }, "geometry": { "type": "Point", "coordinates": [ 72.8715659, 19.0710834 ] } },
{ "type": "Feature", "properties": { "name": "Muchhala College", "refs": "55,346,1122,1713,3128,3556,", "route_nums": "53,54,60,61,65,69," }, "geometry": { "type": "Point", "coordinates": [ 72.96824805, 19.26281505 ] } },
{ "type": "Feature", "properties": { "name": "Muktai Nagar", "refs": "332,432,476,810,860,1583,1601,1698,1907,1907,1907,2151,2193,2507,2773,3072,3114,3321,3447,4051,", "route_nums": "112,12,27,51,54,56,59,60,61,62,63,75,89,91,92,93,94,95,96,98," }, "geometry": { "type": "Point", "coordinates": [ 72.977129485, 19.210850655 ] } },
{ "type": "Feature", "properties": { "name": "Muktaingar", "refs": "888,", "route_nums": "56A," }, "geometry": { "type": "Point", "coordinates": [ 72.9771252, 19.2108322 ] } },
{ "type": "Feature", "properties": { "name": "Mulla Bagh", "refs": "49,80,339,1115,1706,1915,2514,2780,2899,3121,3454,3549,", "route_nums": "122,51,52,53,54,60,61,62,63,65,69,75," }, "geometry": { "type": "Point", "coordinates": [ 72.97548764166666, 19.239081075 ] } },
{ "type": "Feature", "properties": { "name": "Mullabaugh", "refs": "3891,", "route_nums": "126," }, "geometry": { "type": "Point", "coordinates": [ 72.9754867, 19.2390514 ] } },
{ "type": "Feature", "properties": { "name": "Mulund", "refs": "2544,", "route_nums": "104," }, "geometry": { "type": "Point", "coordinates": [ 72.9543665, 19.1842828 ] } },
{ "type": "Feature", "properties": { "name": "Mulund Check Naka (Narpoli)", "refs": "1334,2337,", "route_nums": "78,85," }, "geometry": { "type": "Point", "coordinates": [ 72.95668655, 19.185827 ] } },
{ "type": "Feature", "properties": { "name": "Mulund Station (W)", "refs": "993,1292,1329,1438,2253,2549,2863,", "route_nums": "102,104,110,115,122,85,88," }, "geometry": { "type": "Point", "coordinates": [ 72.958048328571422, 19.173926985714285 ] } },
{ "type": "Feature", "properties": { "name": "Mumbra", "refs": "2757,", "route_nums": "75," }, "geometry": { "type": "Point", "coordinates": [ 73.0226129, 19.1899457 ] } },
{ "type": "Feature", "properties": { "name": "Mumbra Police Station", "refs": "2372,2756,3669,", "route_nums": "70,75,78," }, "geometry": { "type": "Point", "coordinates": [ 73.022455966666655, 19.1834606 ] } },
{ "type": "Feature", "properties": { "name": "Mumbra Prabhat Office", "refs": "2370,3667,", "route_nums": "70,78," }, "geometry": { "type": "Point", "coordinates": [ 73.02154525, 19.1874306 ] } },
{ "type": "Feature", "properties": { "name": "Mumbra Railway Station", "refs": "2369,3666,", "route_nums": "70,78," }, "geometry": { "type": "Point", "coordinates": [ 73.0228229, 19.19007795 ] } },
{ "type": "Feature", "properties": { "name": "Mumbra Shiv Mandir", "refs": "2374,2754,3671,", "route_nums": "70,75,78," }, "geometry": { "type": "Point", "coordinates": [ 73.022749333333337, 19.1774167 ] } },
{ "type": "Feature", "properties": { "name": "Mumbra Toll Naka", "refs": "1451,1519,", "route_nums": "87,88," }, "geometry": { "type": "Point", "coordinates": [ 73.00742075, 19.21250725 ] } },
{ "type": "Feature", "properties": { "name": "Municipal Commissioner House", "refs": "3898,", "route_nums": "126," }, "geometry": { "type": "Point", "coordinates": [ 72.9777938, 19.2481914 ] } },
{ "type": "Feature", "properties": { "name": "Nalanda", "refs": "3868,", "route_nums": "126," }, "geometry": { "type": "Point", "coordinates": [ 72.9126542, 19.0748813 ] } },
{ "type": "Feature", "properties": { "name": "Nalasopara Railway Station (E)", "refs": "3601,", "route_nums": "69," }, "geometry": { "type": "Point", "coordinates": [ 72.8192186, 19.4207492 ] } },
{ "type": "Feature", "properties": { "name": "Namdev Wadi", "refs": "164,", "route_nums": "6," }, "geometry": { "type": "Point", "coordinates": [ 72.9668465, 19.1981724 ] } },
{ "type": "Feature", "properties": { "name": "Nandanwan Homes", "refs": "2986,", "route_nums": "39," }, "geometry": { "type": "Point", "coordinates": [ 73.009865, 19.20932667 ] } },
{ "type": "Feature", "properties": { "name": "Narpoli Police Station", "refs": "1366,4069,", "route_nums": "85,89," }, "geometry": { "type": "Point", "coordinates": [ 73.0501791, 19.28368655 ] } },
{ "type": "Feature", "properties": { "name": "Nashimat Colony", "refs": "3674,", "route_nums": "70," }, "geometry": { "type": "Point", "coordinates": [ 73.0245763, 19.1701116 ] } },
{ "type": "Feature", "properties": { "name": "National Park", "refs": "1151,", "route_nums": "65," }, "geometry": { "type": "Point", "coordinates": [ 72.863136, 19.230497 ] } },
{ "type": "Feature", "properties": { "name": "Naupada", "refs": "2293,", "route_nums": "20," }, "geometry": { "type": "Point", "coordinates": [ 72.9675119, 19.188317 ] } },
{ "type": "Feature", "properties": { "name": "Nency Colony", "refs": "1150,1738,", "route_nums": "60,65," }, "geometry": { "type": "Point", "coordinates": [ 72.8637049, 19.23767325 ] } },
{ "type": "Feature", "properties": { "name": "New Shakti Mill", "refs": "144,", "route_nums": "9," }, "geometry": { "type": "Point", "coordinates": [ 72.9757227, 19.2006722 ] } },
{ "type": "Feature", "properties": { "name": "New Shakti Mill / Ambedkar Road", "refs": "227,", "route_nums": "16," }, "geometry": { "type": "Point", "coordinates": [ 72.975575, 19.200687 ] } },
{ "type": "Feature", "properties": { "name": "Nilkanth", "refs": "3254,", "route_nums": "10," }, "geometry": { "type": "Point", "coordinates": [ 72.958532, 19.2247863 ] } },
{ "type": "Feature", "properties": { "name": "Nitin Company", "refs": "41,71,195,1105,1341,1445,1772,1810,2298,3540,3880,", "route_nums": "126,20,36,52,53,6,65,69,8,85,88," }, "geometry": { "type": "Point", "coordinates": [ 72.963272218181828, 19.199101290909091 ] } },
{ "type": "Feature", "properties": { "name": "Novartis", "refs": "873,2203,", "route_nums": "95,98," }, "geometry": { "type": "Point", "coordinates": [ 72.9885205, 19.2349188 ] } },
{ "type": "Feature", "properties": { "name": "Omkareshwar Mandir", "refs": "1152,1740,", "route_nums": "60,65," }, "geometry": { "type": "Point", "coordinates": [ 72.8628498, 19.23055305 ] } },
{ "type": "Feature", "properties": { "name": "Oriental Bank", "refs": "3593,", "route_nums": "69," }, "geometry": { "type": "Point", "coordinates": [ 72.827429, 19.4072661 ] } },
{ "type": "Feature", "properties": { "name": "Oswal Park", "refs": "433,2152,", "route_nums": "12,59," }, "geometry": { "type": "Point", "coordinates": [ 72.9763182, 19.21450535 ] } },
{ "type": "Feature", "properties": { "name": "Oswal Sagar Hall", "refs": "1365,4067,", "route_nums": "85,89," }, "geometry": { "type": "Point", "coordinates": [ 73.04430585, 19.27636325 ] } },
{ "type": "Feature", "properties": { "name": "Ovala", "refs": "1127,1718,", "route_nums": "60,65," }, "geometry": { "type": "Point", "coordinates": [ 72.96033, 19.2741978 ] } },
{ "type": "Feature", "properties": { "name": "Ovala Gaon", "refs": "60,3561,", "route_nums": "53,69," }, "geometry": { "type": "Point", "coordinates": [ 72.9603191, 19.27419415 ] } },
{ "type": "Feature", "properties": { "name": "Owali", "refs": "1456,", "route_nums": "88," }, "geometry": { "type": "Point", "coordinates": [ 73.061612, 19.254902 ] } },
{ "type": "Feature", "properties": { "name": "Pach Rasta Devidayal", "refs": "2548,", "route_nums": "104," }, "geometry": { "type": "Point", "coordinates": [ 72.9527894, 19.1754957 ] } },
{ "type": "Feature", "properties": { "name": "Pach Rasta Devidayal Road", "refs": "2864,", "route_nums": "122," }, "geometry": { "type": "Point", "coordinates": [ 72.9536832, 19.1758641 ] } },
{ "type": "Feature", "properties": { "name": "Padle Gaon", "refs": "3687,", "route_nums": "70," }, "geometry": { "type": "Point", "coordinates": [ 73.0601915, 19.1537408 ] } },
{ "type": "Feature", "properties": { "name": "Panchamrit", "refs": "53,344,1120,1711,2783,3126,3554,", "route_nums": "53,54,60,61,65,69,75," }, "geometry": { "type": "Point", "coordinates": [ 72.970489714285719, 19.257122771428573 ] } },
{ "type": "Feature", "properties": { "name": "Paras Shop", "refs": "3598,", "route_nums": "69," }, "geometry": { "type": "Point", "coordinates": [ 72.822997, 19.4164871 ] } },
{ "type": "Feature", "properties": { "name": "Parkwood Society", "refs": "3129,", "route_nums": "61," }, "geometry": { "type": "Point", "coordinates": [ 72.96547667, 19.262215 ] } },
{ "type": "Feature", "properties": { "name": "Parmarth Niketan", "refs": "1812,", "route_nums": "6," }, "geometry": { "type": "Point", "coordinates": [ 72.9667866, 19.1947608 ] } },
{ "type": "Feature", "properties": { "name": "Passport Office / M.I.D.C", "refs": "2259,2870,", "route_nums": "102,122," }, "geometry": { "type": "Point", "coordinates": [ 72.95525035, 19.19109815 ] } },
{ "type": "Feature", "properties": { "name": "Pathar Pada", "refs": "3574,", "route_nums": "69," }, "geometry": { "type": "Point", "coordinates": [ 72.8955548, 19.3213076 ] } },
{ "type": "Feature", "properties": { "name": "Patli Pada", "refs": "341,1117,1708,1917,2781,3123,3456,3551,", "route_nums": "51,54,60,61,63,65,69,75," }, "geometry": { "type": "Point", "coordinates": [ 72.975337237499986, 19.2472736 ] } },
{ "type": "Feature", "properties": { "name": "Pawar Nagar", "refs": "443,1025,", "route_nums": "110,12," }, "geometry": { "type": "Point", "coordinates": [ 72.9661062, 19.22888195 ] } },
{ "type": "Feature", "properties": { "name": "Pimplas", "refs": "1457,", "route_nums": "88," }, "geometry": { "type": "Point", "coordinates": [ 73.06928, 19.26032 ] } },
{ "type": "Feature", "properties": { "name": "Pipe Line", "refs": "1518,", "route_nums": "87," }, "geometry": { "type": "Point", "coordinates": [ 73.012156, 19.2140504 ] } },
{ "type": "Feature", "properties": { "name": "Pipe Line Kalher", "refs": "1358,4061,", "route_nums": "85,89," }, "geometry": { "type": "Point", "coordinates": [ 73.01801695, 19.25130795 ] } },
{ "type": "Feature", "properties": { "name": "Pipeline Road", "refs": "1462,", "route_nums": "88," }, "geometry": { "type": "Point", "coordinates": [ 73.073958, 19.281865 ] } },
{ "type": "Feature", "properties": { "name": "Piyushpani Parshvanath Jain Temple", "refs": "1139,1726,", "route_nums": "60,65," }, "geometry": { "type": "Point", "coordinates": [ 72.899272, 19.28531195 ] } },
{ "type": "Feature", "properties": { "name": "Police Line", "refs": "329,806,856,1579,1598,1694,1694,1903,2503,2769,2966,3069,3110,3443,3707,3707,4047,", "route_nums": "112,2,27,51,54,56,60,61,62,63,75,89,91,92,93,94,98," }, "geometry": { "type": "Point", "coordinates": [ 72.979299888235289, 19.201255805882351 ] } },
{ "type": "Feature", "properties": { "name": "Poshmata Mandir", "refs": "63,1130,1719,3563,", "route_nums": "53,60,65,69," }, "geometry": { "type": "Point", "coordinates": [ 72.95506305, 19.281051025 ] } },
{ "type": "Feature", "properties": { "name": "Power House", "refs": "1463,", "route_nums": "88," }, "geometry": { "type": "Point", "coordinates": [ 73.067328, 19.291293 ] } },
{ "type": "Feature", "properties": { "name": "Pradeep Society", "refs": "1813,2296,", "route_nums": "20,6," }, "geometry": { "type": "Point", "coordinates": [ 72.96724025, 19.1934871 ] } },
{ "type": "Feature", "properties": { "name": "Prem Nagar", "refs": "1510,2358,2981,3349,", "route_nums": "39,70,78,87," }, "geometry": { "type": "Point", "coordinates": [ 73.005630625, 19.2035556 ] } },
{ "type": "Feature", "properties": { "name": "Pudhari Nagar", "refs": "3599,", "route_nums": "69," }, "geometry": { "type": "Point", "coordinates": [ 72.8216929, 19.4180562 ] } },
{ "type": "Feature", "properties": { "name": "Pujani Estate", "refs": "146,229,698,3242,", "route_nums": "10,16,34,9," }, "geometry": { "type": "Point", "coordinates": [ 72.969925125, 19.204063325 ] } },
{ "type": "Feature", "properties": { "name": "Purna", "refs": "1360,3026,4063,", "route_nums": "46,85,89," }, "geometry": { "type": "Point", "coordinates": [ 73.026415266666675, 19.2582609 ] } },
{ "type": "Feature", "properties": { "name": "R. T. O/Central Jail", "refs": "2973,", "route_nums": "39," }, "geometry": { "type": "Point", "coordinates": [ 72.9812883, 19.1990638 ] } },
{ "type": "Feature", "properties": { "name": "R.T.O Thane", "refs": "287,1503,1782,2350,2447,2768,4046,4104,", "route_nums": "13,36,40,43,75,78,87,89," }, "geometry": { "type": "Point", "coordinates": [ 72.981244575, 19.199015862499998 ] } },
{ "type": "Feature", "properties": { "name": "R.T.O. / Kamraj Nagar", "refs": "3867,", "route_nums": "126," }, "geometry": { "type": "Point", "coordinates": [ 72.9104689, 19.0732283 ] } },
{ "type": "Feature", "properties": { "name": "Raghukul Society", "refs": "2987,", "route_nums": "39," }, "geometry": { "type": "Point", "coordinates": [ 73.00626167, 19.20706167 ] } },
{ "type": "Feature", "properties": { "name": "Rahnal", "refs": "1362,4065,", "route_nums": "85,89," }, "geometry": { "type": "Point", "coordinates": [ 73.0299, 19.261988 ] } },
{ "type": "Feature", "properties": { "name": "Raj Park", "refs": "1511,2359,2761,2982,3656,", "route_nums": "39,70,75,78,87," }, "geometry": { "type": "Point", "coordinates": [ 73.0070613, 19.204901576 ] } },
{ "type": "Feature", "properties": { "name": "Ram Ganesh Gadkari Rangayatan", "refs": "468,", "route_nums": "96," }, "geometry": { "type": "Point", "coordinates": [ 72.9743513, 19.1948902 ] } },
{ "type": "Feature", "properties": { "name": "Ram Mandir", "refs": "243,", "route_nums": "16," }, "geometry": { "type": "Point", "coordinates": [ 72.9451686, 19.2351511 ] } },
{ "type": "Feature", "properties": { "name": "Ramabai Nagar", "refs": "3869,", "route_nums": "126," }, "geometry": { "type": "Point", "coordinates": [ 72.91566, 19.0782489 ] } },
{ "type": "Feature", "properties": { "name": "Ramchandra Nagar", "refs": "1809,", "route_nums": "6," }, "geometry": { "type": "Point", "coordinates": [ 72.9625606, 19.2000822 ] } },
{ "type": "Feature", "properties": { "name": "Ramchandra Nagar No 1", "refs": "1771,", "route_nums": "36," }, "geometry": { "type": "Point", "coordinates": [ 72.9625604, 19.2000829 ] } },
{ "type": "Feature", "properties": { "name": "Rameshwar Society", "refs": "3177,", "route_nums": "82," }, "geometry": { "type": "Point", "coordinates": [ 73.0095623, 19.2042289 ] } },
{ "type": "Feature", "properties": { "name": "Range Office", "refs": "3587,", "route_nums": "69," }, "geometry": { "type": "Point", "coordinates": [ 72.8503693, 19.4055834 ] } },
{ "type": "Feature", "properties": { "name": "Raval Pada", "refs": "1148,", "route_nums": "65," }, "geometry": { "type": "Point", "coordinates": [ 72.867952, 19.251793 ] } },
{ "type": "Feature", "properties": { "name": "Ravi Fisheries", "refs": "3147,", "route_nums": "111," }, "geometry": { "type": "Point", "coordinates": [ 72.945314, 19.1950918 ] } },
{ "type": "Feature", "properties": { "name": "Raymond", "refs": "199,2197,3244,", "route_nums": "10,8,95," }, "geometry": { "type": "Point", "coordinates": [ 72.9645141, 19.207769933333335 ] } },
{ "type": "Feature", "properties": { "name": "Reserve Bank Of India (RBI) BKC", "refs": "3857,", "route_nums": "126," }, "geometry": { "type": "Point", "coordinates": [ 72.8530886, 19.0579101 ] } },
{ "type": "Feature", "properties": { "name": "Reti Bunder 1", "refs": "2368,", "route_nums": "78," }, "geometry": { "type": "Point", "coordinates": [ 73.0223698, 19.2004036 ] } },
{ "type": "Feature", "properties": { "name": "Reti Bunder 2/Ranna Nagar", "refs": "2367,", "route_nums": "78," }, "geometry": { "type": "Point", "coordinates": [ 73.0199248, 19.2034467 ] } },
{ "type": "Feature", "properties": { "name": "Reti Bunder 3", "refs": "2366,", "route_nums": "78," }, "geometry": { "type": "Point", "coordinates": [ 73.0178123, 19.2070787 ] } },
{ "type": "Feature", "properties": { "name": "Reti Bunder Circle", "refs": "1517,2365,2759,3661,", "route_nums": "70,75,78,87," }, "geometry": { "type": "Point", "coordinates": [ 73.01638315, 19.210211975 ] } },
{ "type": "Feature", "properties": { "name": "Retibndar No.2", "refs": "2758,", "route_nums": "75," }, "geometry": { "type": "Point", "coordinates": [ 73.0204258, 19.2025627 ] } },
{ "type": "Feature", "properties": { "name": "Retibunder Number 1", "refs": "3664,", "route_nums": "70," }, "geometry": { "type": "Point", "coordinates": [ 73.0223813, 19.2003933 ] } },
{ "type": "Feature", "properties": { "name": "Retibunder Number 2/Ranna Nagar", "refs": "3663,", "route_nums": "70," }, "geometry": { "type": "Point", "coordinates": [ 73.0199267, 19.2034459 ] } },
{ "type": "Feature", "properties": { "name": "Retibunder Number 3", "refs": "3662,", "route_nums": "70," }, "geometry": { "type": "Point", "coordinates": [ 73.0178124, 19.2070791 ] } },
{ "type": "Feature", "properties": { "name": "Road No 16", "refs": "272,665,1001,1297,1565,1565,2260,2540,2871,3144,", "route_nums": "102,104,110,111,115,122,23,43,78,91," }, "geometry": { "type": "Point", "coordinates": [ 72.95380864, 19.19352353 ] } },
{ "type": "Feature", "properties": { "name": "Road No 22", "refs": "1298,2539,", "route_nums": "104,115," }, "geometry": { "type": "Point", "coordinates": [ 72.9498189, 19.19462875 ] } },
{ "type": "Feature", "properties": { "name": "Road No 27", "refs": "2538,", "route_nums": "104," }, "geometry": { "type": "Point", "coordinates": [ 72.9453411, 19.1952359 ] } },
{ "type": "Feature", "properties": { "name": "Royal Garden Resort", "refs": "3573,", "route_nums": "69," }, "geometry": { "type": "Point", "coordinates": [ 72.897853, 19.3185642 ] } },
{ "type": "Feature", "properties": { "name": "Runwal Garden City", "refs": "3079,", "route_nums": "92," }, "geometry": { "type": "Point", "coordinates": [ 72.9881211, 19.2230488 ] } },
{ "type": "Feature", "properties": { "name": "Runwal Plaza", "refs": "1007,1307,2880,", "route_nums": "110,115,122," }, "geometry": { "type": "Point", "coordinates": [ 72.9582243, 19.2079962 ] } },
{ "type": "Feature", "properties": { "name": "Rutu Tower", "refs": "87,3897,", "route_nums": "126,52," }, "geometry": { "type": "Point", "coordinates": [ 72.9788877, 19.247889 ] } },
{ "type": "Feature", "properties": { "name": "S T Juna Thamba / Shastri Nagar", "refs": "234,703,2884,3247,", "route_nums": "10,122,16,34," }, "geometry": { "type": "Point", "coordinates": [ 72.959123375, 19.21340495 ] } },
{ "type": "Feature", "properties": { "name": "S T Juna Thamba / Shastri Nagar Naka", "refs": "151,", "route_nums": "9," }, "geometry": { "type": "Point", "coordinates": [ 72.959045, 19.213433 ] } },
{ "type": "Feature", "properties": { "name": "Sachin Society", "refs": "3325,", "route_nums": "27," }, "geometry": { "type": "Point", "coordinates": [ 72.9798125, 19.2147196 ] } },
{ "type": "Feature", "properties": { "name": "Saffire", "refs": "2762,", "route_nums": "75," }, "geometry": { "type": "Point", "coordinates": [ 73.00457054, 19.20294476 ] } },
{ "type": "Feature", "properties": { "name": "Sahakar Nagar", "refs": "3865,", "route_nums": "126," }, "geometry": { "type": "Point", "coordinates": [ 72.8943521, 19.0652812 ] } },
{ "type": "Feature", "properties": { "name": "Sahayog Soc", "refs": "895,", "route_nums": "56A," }, "geometry": { "type": "Point", "coordinates": [ 72.9726103, 19.2362974 ] } },
{ "type": "Feature", "properties": { "name": "Sahayog Society", "refs": "817,2897,", "route_nums": "122,56," }, "geometry": { "type": "Point", "coordinates": [ 72.972683600000011, 19.23635165 ] } },
{ "type": "Feature", "properties": { "name": "Sahyadri Society", "refs": "291,1507,1786,2354,2765,2977,3652,4108,", "route_nums": "36,39,40,43,70,75,78,87," }, "geometry": { "type": "Point", "coordinates": [ 72.993767, 19.19801505 ] } },
{ "type": "Feature", "properties": { "name": "Sai Nath Nagar", "refs": "1516,2364,", "route_nums": "78,87," }, "geometry": { "type": "Point", "coordinates": [ 73.0138437, 19.20951185 ] } },
{ "type": "Feature", "properties": { "name": "Saibaba Mandir", "refs": "1460,", "route_nums": "88," }, "geometry": { "type": "Point", "coordinates": [ 73.079615, 19.274217 ] } },
{ "type": "Feature", "properties": { "name": "Sainath Nagar / Hyper City Mall", "refs": "348,", "route_nums": "54," }, "geometry": { "type": "Point", "coordinates": [ 72.966582, 19.266847 ] } },
{ "type": "Feature", "properties": { "name": "Saket Complex", "refs": "3012,", "route_nums": "46," }, "geometry": { "type": "Point", "coordinates": [ 72.9920346, 19.2062078 ] } },
{ "type": "Feature", "properties": { "name": "Sambhaji Hotel", "refs": "3461,", "route_nums": "63," }, "geometry": { "type": "Point", "coordinates": [ 72.971465, 19.2604117 ] } },
{ "type": "Feature", "properties": { "name": "Sambhaji Nagar", "refs": "196,", "route_nums": "8," }, "geometry": { "type": "Point", "coordinates": [ 72.964897, 19.201048 ] } },
{ "type": "Feature", "properties": { "name": "Samrat Hotel / Mahavishnu Mandir", "refs": "1732,", "route_nums": "60," }, "geometry": { "type": "Point", "coordinates": [ 72.8757789, 19.2651561 ] } },
{ "type": "Feature", "properties": { "name": "Sandoz Baug", "refs": "872,2202,", "route_nums": "95,98," }, "geometry": { "type": "Point", "coordinates": [ 72.9877047, 19.23341255 ] } },
{ "type": "Feature", "properties": { "name": "Sanjay Nagar/Shiv Sena Office", "refs": "2373,3670,", "route_nums": "70,78," }, "geometry": { "type": "Point", "coordinates": [ 73.0226404, 19.1802274 ] } },
{ "type": "Feature", "properties": { "name": "Sanjaya Nagar", "refs": "2755,", "route_nums": "75," }, "geometry": { "type": "Point", "coordinates": [ 73.0224167, 19.1802254 ] } },
{ "type": "Feature", "properties": { "name": "Santoshi Mata Mandir", "refs": "997,1332,2256,2867,", "route_nums": "102,110,122,85," }, "geometry": { "type": "Point", "coordinates": [ 72.949305375, 19.183403125 ] } },
{ "type": "Feature", "properties": { "name": "Santoshi Mata Temple", "refs": "2545,", "route_nums": "104," }, "geometry": { "type": "Point", "coordinates": [ 72.9502494, 19.1833434 ] } },
{ "type": "Feature", "properties": { "name": "Sasunavghar", "refs": "3572,", "route_nums": "69," }, "geometry": { "type": "Point", "coordinates": [ 72.8996206, 19.3151411 ] } },
{ "type": "Feature", "properties": { "name": "Sathe Nagar", "refs": "155,1300,2332,2535,3150,", "route_nums": "104,111,115,6,78," }, "geometry": { "type": "Point", "coordinates": [ 72.94911378, 19.20082736 ] } },
{ "type": "Feature", "properties": { "name": "Sativali Naka", "refs": "3581,", "route_nums": "69," }, "geometry": { "type": "Point", "coordinates": [ 72.8726704, 19.405879 ] } },
{ "type": "Feature", "properties": { "name": "Sativali Phata", "refs": "3579,", "route_nums": "69," }, "geometry": { "type": "Point", "coordinates": [ 72.8825774, 19.4033484 ] } },
{ "type": "Feature", "properties": { "name": "Sativali Phata Bus Station / Gavri Devi Temple", "refs": "3580,", "route_nums": "69," }, "geometry": { "type": "Point", "coordinates": [ 72.8771823, 19.4046911 ] } },
{ "type": "Feature", "properties": { "name": "Savarkar Nagar Naka", "refs": "158,2877,", "route_nums": "122,6," }, "geometry": { "type": "Point", "coordinates": [ 72.95381545, 19.2051164 ] } },
{ "type": "Feature", "properties": { "name": "School No 7", "refs": "428,1823,2147,", "route_nums": "12,59,6," }, "geometry": { "type": "Point", "coordinates": [ 72.9777524, 19.2017983 ] } },
{ "type": "Feature", "properties": { "name": "Shahu Maharaj Market", "refs": "656,692,2184,", "route_nums": "23,34,95," }, "geometry": { "type": "Point", "coordinates": [ 72.967512233333338, 19.18829546666667 ] } },
{ "type": "Feature", "properties": { "name": "Shashkiy Vishram Gruh Versova, Ghodbunder", "refs": "1137,2789,3569,", "route_nums": "65,69,75," }, "geometry": { "type": "Point", "coordinates": [ 72.906719066666668, 19.282444733333332 ] } },
{ "type": "Feature", "properties": { "name": "Shaskiya Niwas Kopri", "refs": "3535,", "route_nums": "69," }, "geometry": { "type": "Point", "coordinates": [ 72.9707455, 19.1824205 ] } },
{ "type": "Feature", "properties": { "name": "Shastri Nagar Naka", "refs": "202,", "route_nums": "8," }, "geometry": { "type": "Point", "coordinates": [ 72.9602577, 19.2127233 ] } },
{ "type": "Feature", "properties": { "name": "Shaumarket", "refs": "879,", "route_nums": "56A," }, "geometry": { "type": "Point", "coordinates": [ 72.9674797, 19.1883877 ] } },
{ "type": "Feature", "properties": { "name": "Shibli Nagar", "refs": "3681,", "route_nums": "70," }, "geometry": { "type": "Point", "coordinates": [ 73.0404638, 19.1477036 ] } },
{ "type": "Feature", "properties": { "name": "Shidheswer Garden", "refs": "2199,", "route_nums": "95," }, "geometry": { "type": "Point", "coordinates": [ 72.9822472, 19.2283822 ] } },
{ "type": "Feature", "properties": { "name": "Shil Phata", "refs": "3683,", "route_nums": "70," }, "geometry": { "type": "Point", "coordinates": [ 73.0454122, 19.1437639 ] } },
{ "type": "Feature", "properties": { "name": "Shimla Park", "refs": "2748,", "route_nums": "75," }, "geometry": { "type": "Point", "coordinates": [ 73.0284837, 19.1633165 ] } },
{ "type": "Feature", "properties": { "name": "Shivai Nagar", "refs": "153,236,1013,3249,", "route_nums": "10,110,16,9," }, "geometry": { "type": "Point", "coordinates": [ 72.9563118, 19.215689525 ] } },
{ "type": "Feature", "properties": { "name": "Shree Maa Bal Niketan", "refs": "88,", "route_nums": "52," }, "geometry": { "type": "Point", "coordinates": [ 72.9793302, 19.249882 ] } },
{ "type": "Feature", "properties": { "name": "Shree Ram Nagar", "refs": "1524,", "route_nums": "87," }, "geometry": { "type": "Point", "coordinates": [ 73.042432, 19.229583 ] } },
{ "type": "Feature", "properties": { "name": "Shri Ram Hospital", "refs": "61,1128,3562,", "route_nums": "53,65,69," }, "geometry": { "type": "Point", "coordinates": [ 72.958874333333327, 19.275758166666666 ] } },
{ "type": "Feature", "properties": { "name": "Shrirang Society", "refs": "1826,", "route_nums": "6," }, "geometry": { "type": "Point", "coordinates": [ 72.9801307, 19.2061647 ] } },
{ "type": "Feature", "properties": { "name": "Shruti Park", "refs": "483,867,867,", "route_nums": "94,96,98," }, "geometry": { "type": "Point", "coordinates": [ 72.980840133333331, 19.225426866666666 ] } },
{ "type": "Feature", "properties": { "name": "Siddarth Nagar Shashkiya Niwas", "refs": "1099,", "route_nums": "65," }, "geometry": { "type": "Point", "coordinates": [ 72.970706, 19.182417 ] } },
{ "type": "Feature", "properties": { "name": "Siddharth Nagar Shashkiya Niwas", "refs": "3134,", "route_nums": "111," }, "geometry": { "type": "Point", "coordinates": [ 72.9707458, 19.1824244 ] } },
{ "type": "Feature", "properties": { "name": "Siddhivinayak Tower", "refs": "3883,", "route_nums": "126," }, "geometry": { "type": "Point", "coordinates": [ 72.9742555, 19.2101411 ] } },
{ "type": "Feature", "properties": { "name": "Silver Park", "refs": "2796,", "route_nums": "75," }, "geometry": { "type": "Point", "coordinates": [ 72.8739458, 19.2820123 ] } },
{ "type": "Feature", "properties": { "name": "St Work Shop", "refs": "883,2188,", "route_nums": "56A,95," }, "geometry": { "type": "Point", "coordinates": [ 72.97329835, 19.20077585 ] } },
{ "type": "Feature", "properties": { "name": "St. Xavier School", "refs": "2515,", "route_nums": "62," }, "geometry": { "type": "Point", "coordinates": [ 72.9771517, 19.2408135 ] } },
{ "type": "Feature", "properties": { "name": "St. Xaviers School", "refs": "82,2901,", "route_nums": "122,52," }, "geometry": { "type": "Point", "coordinates": [ 72.9771553, 19.24081635 ] } },
{ "type": "Feature", "properties": { "name": "Stanford Society", "refs": "90,", "route_nums": "52," }, "geometry": { "type": "Point", "coordinates": [ 72.9795136, 19.2564307 ] } },
{ "type": "Feature", "properties": { "name": "Subhash Nagar", "refs": "434,2153,", "route_nums": "12,59," }, "geometry": { "type": "Point", "coordinates": [ 72.97400795, 19.21626265 ] } },
{ "type": "Feature", "properties": { "name": "Subhash Tower", "refs": "2362,2985,3658,", "route_nums": "39,70,78," }, "geometry": { "type": "Point", "coordinates": [ 73.011622056666667, 19.20802761 ] } },
{ "type": "Feature", "properties": { "name": "Sukur Park", "refs": "1787,2355,2764,2978,3653,", "route_nums": "36,39,70,75,78," }, "geometry": { "type": "Point", "coordinates": [ 72.9953228, 19.19880002 ] } },
{ "type": "Feature", "properties": { "name": "Surai Phata", "refs": "1525,", "route_nums": "87," }, "geometry": { "type": "Point", "coordinates": [ 73.042502, 19.2199965 ] } },
{ "type": "Feature", "properties": { "name": "Swami Vivekanand Chowk", "refs": "1100,3135,", "route_nums": "111,65," }, "geometry": { "type": "Point", "coordinates": [ 72.96773935, 19.1816116 ] } },
{ "type": "Feature", "properties": { "name": "Swanand Ashram", "refs": "242,", "route_nums": "16," }, "geometry": { "type": "Point", "coordinates": [ 72.9461797, 19.233575 ] } },
{ "type": "Feature", "properties": { "name": "Swarvali Devi", "refs": "3682,", "route_nums": "70," }, "geometry": { "type": "Point", "coordinates": [ 73.0406472, 19.1475845 ] } },
{ "type": "Feature", "properties": { "name": "Swastik Park", "refs": "85,2518,2904,3895,", "route_nums": "122,126,52,62," }, "geometry": { "type": "Point", "coordinates": [ 72.982733275, 19.2434454 ] } },
{ "type": "Feature", "properties": { "name": "Swastik Regalia", "refs": "1922,", "route_nums": "51," }, "geometry": { "type": "Point", "coordinates": [ 72.9770962, 19.2625299 ] } },
{ "type": "Feature", "properties": { "name": "Swayam Siddhi College", "refs": "1461,", "route_nums": "88," }, "geometry": { "type": "Point", "coordinates": [ 73.078312, 19.276175 ] } },
{ "type": "Feature", "properties": { "name": "Talao Pali", "refs": "141,224,284,326,425,467,803,853,1269,1576,1900,2347,2500,3066,3316,", "route_nums": "12,16,27,43,51,54,56,62,78,9,91,92,93,96,98," }, "geometry": { "type": "Point", "coordinates": [ 72.97671334, 19.193814733333333 ] } },
{ "type": "Feature", "properties": { "name": "Talao Pali / Jambhali Naka", "refs": "2144,3107,3440,", "route_nums": "59,61,63," }, "geometry": { "type": "Point", "coordinates": [ 72.976711866666676, 19.193799133333332 ] } },
{ "type": "Feature", "properties": { "name": "Tanwar Nagar", "refs": "2751,", "route_nums": "75," }, "geometry": { "type": "Point", "coordinates": [ 73.024443, 19.1700719 ] } },
{ "type": "Feature", "properties": { "name": "Tata Motors", "refs": "3149,", "route_nums": "111," }, "geometry": { "type": "Point", "coordinates": [ 72.9490625, 19.1977002 ] } },
{ "type": "Feature", "properties": { "name": "Tattvagyan Vidyapeeth", "refs": "46,77,336,814,1112,1702,1911,2511,2777,3118,3451,3546,3887,", "route_nums": "126,51,52,53,54,56,60,61,62,63,65,69,75," }, "geometry": { "type": "Point", "coordinates": [ 72.977311684615387, 19.223458538461536 ] } },
{ "type": "Feature", "properties": { "name": "Teen Hat Naka", "refs": "3138,", "route_nums": "111," }, "geometry": { "type": "Point", "coordinates": [ 72.9627439, 19.1877118 ] } },
{ "type": "Feature", "properties": { "name": "Teen Hath Naka", "refs": "277,659,1102,1337,1443,1570,2340,3137,3538,3878,", "route_nums": "111,126,23,43,65,69,78,85,88,91," }, "geometry": { "type": "Point", "coordinates": [ 72.96287683, 19.18860027 ] } },
{ "type": "Feature", "properties": { "name": "Tembhi Naka", "refs": "142,285,426,804,854,1577,1821,1901,1901,2348,2501,4102,", "route_nums": "12,40,43,51,56,6,62,78,9,91,93,98," }, "geometry": { "type": "Point", "coordinates": [ 72.977253683333331, 19.197067741666665 ] } },
{ "type": "Feature", "properties": { "name": "Tembhi Naka / Court Naka", "refs": "225,327,2145,2971,3108,3441,", "route_nums": "16,39,54,59,61,63," }, "geometry": { "type": "Point", "coordinates": [ 72.97724271666668, 19.197035016666664 ] } },
{ "type": "Feature", "properties": { "name": "Thane Station (East) Kopri", "refs": "1097,1097,3132,", "route_nums": "111,65,69," }, "geometry": { "type": "Point", "coordinates": [ 72.97666, 19.185065333333334 ] } },
{ "type": "Feature", "properties": { "name": "Thane Station West SATIS", "refs": "34,65,140,190,223,283,325,424,466,653,653,690,690,802,852,1499,1575,1595,1690,1819,1899,2143,2182,2291,2346,2443,2499,2962,2969,3065,3106,3234,3315,3439,3706,3706,4100,", "route_nums": "10,112,12,13,16,2,20,23,27,34,36,39,40,43,51,52,53,54,56,56A,59,6,60,61,62,63,78,8,87,9,91,92,93,94,95,96,98," }, "geometry": { "type": "Point", "coordinates": [ 72.976367562162167, 19.186844186486489 ] } },
{ "type": "Feature", "properties": { "name": "Tikuji Ni Wadi", "refs": "823,", "route_nums": "56," }, "geometry": { "type": "Point", "coordinates": [ 72.9658838, 19.2370448 ] } },
{ "type": "Feature", "properties": { "name": "Tikujiniwadi", "refs": "901,", "route_nums": "56A," }, "geometry": { "type": "Point", "coordinates": [ 72.9658835, 19.2370454 ] } },
{ "type": "Feature", "properties": { "name": "Tirupati", "refs": "3584,", "route_nums": "69," }, "geometry": { "type": "Point", "coordinates": [ 72.8642646, 19.4063364 ] } },
{ "type": "Feature", "properties": { "name": "Trimurti School", "refs": "1129,", "route_nums": "65," }, "geometry": { "type": "Point", "coordinates": [ 72.957563, 19.277371 ] } },
{ "type": "Feature", "properties": { "name": "Tukaram Niwas", "refs": "1528,", "route_nums": "87," }, "geometry": { "type": "Point", "coordinates": [ 73.0370345, 19.2098984 ] } },
{ "type": "Feature", "properties": { "name": "Tulsidham", "refs": "2159,", "route_nums": "59," }, "geometry": { "type": "Point", "coordinates": [ 72.973132, 19.222475 ] } },
{ "type": "Feature", "properties": { "name": "Upavan Talav", "refs": "709,", "route_nums": "34," }, "geometry": { "type": "Point", "coordinates": [ 72.9579209, 19.2229276 ] } },
{ "type": "Feature", "properties": { "name": "Upvan Talav", "refs": "1016,3252,", "route_nums": "10,110," }, "geometry": { "type": "Point", "coordinates": [ 72.95360925, 19.22055565 ] } },
{ "type": "Feature", "properties": { "name": "Uthalsar", "refs": "429,1824,2148,", "route_nums": "12,59,6," }, "geometry": { "type": "Point", "coordinates": [ 72.978005, 19.202942966666665 ] } },
{ "type": "Feature", "properties": { "name": "Vadvali Naka", "refs": "58,", "route_nums": "53," }, "geometry": { "type": "Point", "coordinates": [ 72.965392, 19.2693931 ] } },
{ "type": "Feature", "properties": { "name": "Vaiti Wadi", "refs": "161,", "route_nums": "6," }, "geometry": { "type": "Point", "coordinates": [ 72.9612617, 19.2006486 ] } },
{ "type": "Feature", "properties": { "name": "Valiv Phata", "refs": "3583,", "route_nums": "69," }, "geometry": { "type": "Point", "coordinates": [ 72.8659119, 19.4068502 ] } },
{ "type": "Feature", "properties": { "name": "Vandana Cinema", "refs": "694,1774,2186,3238,", "route_nums": "10,34,36,95," }, "geometry": { "type": "Point", "coordinates": [ 72.970456225, 19.19434275 ] } },
{ "type": "Feature", "properties": { "name": "Vandana Hotel", "refs": "994,", "route_nums": "110," }, "geometry": { "type": "Point", "coordinates": [ 72.953172, 19.176372 ] } },
{ "type": "Feature", "properties": { "name": "Vandna Cinema", "refs": "881,", "route_nums": "56A," }, "geometry": { "type": "Point", "coordinates": [ 72.9704405, 19.1943869 ] } },
{ "type": "Feature", "properties": { "name": "Vanjarpatti Flyover", "refs": "1467,", "route_nums": "88," }, "geometry": { "type": "Point", "coordinates": [ 73.06538, 19.305642 ] } },
{ "type": "Feature", "properties": { "name": "Vardhman Garden", "refs": "1281,1589,4054,", "route_nums": "89,91,93," }, "geometry": { "type": "Point", "coordinates": [ 72.98440166666667, 19.2191319 ] } },
{ "type": "Feature", "properties": { "name": "Varsova / Fountain Hotel", "refs": "1725,2790,3570,", "route_nums": "60,69,75," }, "geometry": { "type": "Point", "coordinates": [ 72.904538, 19.2849124 ] } },
{ "type": "Feature", "properties": { "name": "Vartak Nagar Naka", "refs": "149,200,232,701,1009,2882,3245,", "route_nums": "10,110,122,16,34,8,9," }, "geometry": { "type": "Point", "coordinates": [ 72.961826271428578, 19.209979385714284 ] } },
{ "type": "Feature", "properties": { "name": "Vasant Leela", "refs": "1921,", "route_nums": "51," }, "geometry": { "type": "Point", "coordinates": [ 72.9761654, 19.2589753 ] } },
{ "type": "Feature", "properties": { "name": "Vasant Vihar", "refs": "438,1022,2157,2890,", "route_nums": "110,12,122,59," }, "geometry": { "type": "Point", "coordinates": [ 72.96980775, 19.221862025 ] } },
{ "type": "Feature", "properties": { "name": "Vasant Vihar Phata", "refs": "442,", "route_nums": "12," }, "geometry": { "type": "Point", "coordinates": [ 72.9670301, 19.2285553 ] } },
{ "type": "Feature", "properties": { "name": "Vastu Anand", "refs": "1513,2361,2984,3657,", "route_nums": "39,70,78,87," }, "geometry": { "type": "Point", "coordinates": [ 73.00976645, 19.206705925 ] } },
{ "type": "Feature", "properties": { "name": "Vedant Hospital Garib Nagar", "refs": "1126,3560,", "route_nums": "65,69," }, "geometry": { "type": "Point", "coordinates": [ 72.96305925, 19.2721166 ] } },
{ "type": "Feature", "properties": { "name": "Vehele Panchayat", "refs": "1523,", "route_nums": "87," }, "geometry": { "type": "Point", "coordinates": [ 73.041512, 19.234198 ] } },
{ "type": "Feature", "properties": { "name": "Vidyapith", "refs": "892,", "route_nums": "56A," }, "geometry": { "type": "Point", "coordinates": [ 72.9773092, 19.2234475 ] } },
{ "type": "Feature", "properties": { "name": "Vijay Garden", "refs": "54,", "route_nums": "53," }, "geometry": { "type": "Point", "coordinates": [ 72.9693238, 19.260102 ] } },
{ "type": "Feature", "properties": { "name": "Vijay Garden / D Mart", "refs": "345,", "route_nums": "54," }, "geometry": { "type": "Point", "coordinates": [ 72.969165, 19.26048 ] } },
{ "type": "Feature", "properties": { "name": "Vijay Nagari", "refs": "1919,3459,", "route_nums": "51,63," }, "geometry": { "type": "Point", "coordinates": [ 72.97366355, 19.25610475 ] } },
{ "type": "Feature", "properties": { "name": "Vikhroli Police Station", "refs": "3873,", "route_nums": "126," }, "geometry": { "type": "Point", "coordinates": [ 72.9370905, 19.1208657 ] } },
{ "type": "Feature", "properties": { "name": "Vikhroli Station Road", "refs": "3871,", "route_nums": "126," }, "geometry": { "type": "Point", "coordinates": [ 72.9318683, 19.1085523 ] } },
{ "type": "Feature", "properties": { "name": "Vimal Nagar", "refs": "1512,2983,3352,", "route_nums": "39,70,87," }, "geometry": { "type": "Point", "coordinates": [ 73.00870247666667, 19.20602701 ] } },
{ "type": "Feature", "properties": { "name": "Vivekanand Nagar", "refs": "439,", "route_nums": "12," }, "geometry": { "type": "Point", "coordinates": [ 72.9697861, 19.2232401 ] } },
{ "type": "Feature", "properties": { "name": "Voltas Gate", "refs": "435,2154,", "route_nums": "12,59," }, "geometry": { "type": "Point", "coordinates": [ 72.9718859, 19.21696445 ] } },
{ "type": "Feature", "properties": { "name": "Vrindavan Society", "refs": "1828,", "route_nums": "6," }, "geometry": { "type": "Point", "coordinates": [ 72.9827563, 19.2084109 ] } },
{ "type": "Feature", "properties": { "name": "Wagh Bill Naka", "refs": "52,343,1119,1710,2782,3125,3458,3553,", "route_nums": "53,54,60,61,63,65,69,75," }, "geometry": { "type": "Point", "coordinates": [ 72.97225556250001, 19.252853625 ] } },
{ "type": "Feature", "properties": { "name": "Waghbil Gaon", "refs": "1924,", "route_nums": "51," }, "geometry": { "type": "Point", "coordinates": [ 72.983151, 19.2664452 ] } },
{ "type": "Feature", "properties": { "name": "Wagle Agar", "refs": "2534,", "route_nums": "104," }, "geometry": { "type": "Point", "coordinates": [ 72.9459009, 19.2015925 ] } },
{ "type": "Feature", "properties": { "name": "Wagle Bus Depot", "refs": "154,2331,3151,", "route_nums": "111,6,78," }, "geometry": { "type": "Point", "coordinates": [ 72.9458847, 19.2016167 ] } },
{ "type": "Feature", "properties": { "name": "Wagle Circle", "refs": "271,2333,3146,", "route_nums": "111,43,78," }, "geometry": { "type": "Point", "coordinates": [ 72.949702766666675, 19.1946656 ] } },
{ "type": "Feature", "properties": { "name": "Wellman Company", "refs": "870,2200,3718,", "route_nums": "94,95,98," }, "geometry": { "type": "Point", "coordinates": [ 72.984196533333332, 19.229609866666667 ] } },
{ "type": "Feature", "properties": { "name": "Western Hotel", "refs": "1141,", "route_nums": "65," }, "geometry": { "type": "Point", "coordinates": [ 72.889041, 19.276148 ] } },
{ "type": "Feature", "properties": { "name": "Western Hotel / Lakshmi Baug", "refs": "1728,2792,", "route_nums": "60,75," }, "geometry": { "type": "Point", "coordinates": [ 72.889097, 19.276147 ] } },
{ "type": "Feature", "properties": { "name": "Yashaswi Nagar", "refs": "480,864,1350,1588,3077,3711,3711,", "route_nums": "85,91,92,93,94,96,98," }, "geometry": { "type": "Point", "coordinates": [ 72.9834138, 19.218512814285713 ] } },
{ "type": "Feature", "properties": { "name": "Yashaswi Nagar Pipeline", "refs": "481,865,", "route_nums": "96,98," }, "geometry": { "type": "Point", "coordinates": [ 72.98382565, 19.21952185 ] } },
{ "type": "Feature", "properties": { "name": "Yashodhan Nagar", "refs": "672,1305,2267,2878,", "route_nums": "102,115,122,23," }, "geometry": { "type": "Point", "coordinates": [ 72.95451435, 19.208029625 ] } },
{ "type": "Feature", "properties": { "name": "Yashwant Pada", "refs": "3594,", "route_nums": "69," }, "geometry": { "type": "Point", "coordinates": [ 72.8261375, 19.4093106 ] } },
{ "type": "Feature", "properties": { "name": "Yeoor / Patonapada", "refs": "245,", "route_nums": "16," }, "geometry": { "type": "Point", "coordinates": [ 72.943232, 19.24015 ] } },
{ "type": "Feature", "properties": { "name": "Yeoor Gaon", "refs": "240,", "route_nums": "16," }, "geometry": { "type": "Point", "coordinates": [ 72.9483443, 19.2291593 ] } }
]
}
