geometry,geometry1,longitude,latitude,highway,name,operator,position,public_transport,ref,route_direction,route_num
Feature,Point,72.9522643,19.2837186,bus_stop,Bhaindar Pada,Thane Municipal Transport,1,platform,1,0,53
Feature,Point,72.9554085,19.2810085,bus_stop,Poshmata Mandir,Thane Municipal Transport,2,platform,2,0,53
Feature,Point,72.9592466,19.2758187,bus_stop,Shri Ram Hospital,Thane Municipal Transport,3,platform,3,0,53
Feature,Point,72.9605585,19.2744101,bus_stop,Ovala Gaon,Thane Municipal Transport,4,platform,4,0,53
Feature,Point,72.9636395,19.2719832,bus_stop,Garib Nagar,Thane Municipal Transport,5,platform,5,0,53
Feature,Point,72.9655639,19.2696965,bus_stop,Vadvali Naka,Thane Municipal Transport,6,platform,6,0,53
Feature,Point,72.966885,19.2669712,bus_stop,Sainath Nagar,Thane Municipal Transport,7,platform,7,0,53
Feature,Point,72.9677706,19.2648226,bus_stop,Anand Nagar,Thane Municipal Transport,8,platform,8,0,53
Feature,Point,72.968529,19.2628694,bus_stop,Muchhala College,Thane Municipal Transport,9,platform,9,0,53
Feature,Point,72.9699404,19.2594185,bus_stop,Vijay Garden,Thane Municipal Transport,10,platform,10,0,53
Feature,Point,72.9708717,19.2572802,bus_stop,Panchamrit,Thane Municipal Transport,11,platform,11,0,53
Feature,Point,72.9725657,19.2528982,bus_stop,Wagh Bill Naka,Thane Municipal Transport,12,platform,12,0,53
Feature,Point,72.9733919,19.2510265,bus_stop,Dongri Pada,Thane Municipal Transport,13,platform,13,0,53
Feature,Point,72.9755733,19.2475834,bus_stop,Patli Pada,Thane Municipal Transport,14,platform,14,0,53
Feature,Point,72.9759681,19.2420902,bus_stop,Azad Nagar Naka,Thane Municipal Transport,15,platform,15,0,53
Feature,Point,72.97581,19.2393198,bus_stop,Mulla Bagh,Thane Municipal Transport,16,platform,16,0,53
Feature,Point,72.9762931,19.2352799,bus_stop,Manpada,Thane Municipal Transport,17,platform,17,0,53
Feature,Point,72.9768709,19.2301874,bus_stop,Lokim Company/ R Mall,Thane Municipal Transport,18,platform,18,0,53
Feature,Point,72.9776278,19.2239178,bus_stop,Tattvagyan Vidyapeeth,Thane Municipal Transport,19,platform,19,0,53
Feature,Point,72.9779974,19.2207952,bus_stop,Kapurbawdi,Thane Municipal Transport,20,platform,20,0,53
Feature,Point,72.978135,19.2157388,bus_stop,Ashapura Mandir / Majiwada Naka,Thane Municipal Transport,21,platform,21,0,53
Feature,Point,72.9725174,19.2076682,bus_stop,Flower Valley,Thane Municipal Transport,22,platform,22,0,53
Feature,Point,72.9707751,19.2060586,bus_stop,Jupiter Hospital,Thane Municipal Transport,23,platform,23,0,53
Feature,Point,72.9687213,19.2040422,bus_stop,Cadbury Junction,Thane Municipal Transport,24,platform,24,0,53
Feature,Point,72.9634323,19.1988457,bus_stop,Nitin Company,Thane Municipal Transport,25,platform,25,0,53
Feature,Point,72.9626334,19.1956093,bus_stop,Louiswadi,Thane Municipal Transport,26,platform,26,0,53
Feature,Point,72.9637202,19.18864,bus_stop,Highway Darshan,Thane Municipal Transport,27,platform,27,0,53
Feature,Point,72.9644665,19.1890253,bus_stop,Forest Office,Thane Municipal Transport,28,platform,28,0,53
Feature,Point,72.9674372,19.191445,bus_stop,Hari Nivas,Thane Municipal Transport,29,platform,29,0,53
Feature,Point,72.968646,19.1873711,bus_stop,Ice Factory,Thane Municipal Transport,30,platform,30,0,53
Feature,Point,72.9717405,19.1876806,bus_stop,A.K. Joshi Vidyalaya,Thane Municipal Transport,31,platform,31,0,53
Feature,Point,72.9746832,19.1887829,bus_stop,Gaondevi,Thane Municipal Transport,32,platform,32,0,53
Feature,Point,72.976106,19.186713,bus_stop,Thane Station West SATIS,Thane Municipal Transport,33,platform,33,0,53
Feature,Point,72.961098,19.214507,bus_stop,Shastri Nagar,Thane Municipal Transport,1,platform,204,0,8
Feature,Point,72.959249,19.213635,bus_stop,Shastri Nagar Naka,Thane Municipal Transport,2,platform,205,0,8
Feature,Point,72.96036,19.212208,bus_stop,Building No. 3,Thane Municipal Transport,3,platform,206,0,8
Feature,Point,72.961594,19.210604,bus_stop,Vartak Nagar Naka,Thane Municipal Transport,4,platform,207,0,8
Feature,Point,72.965105,19.20746,bus_stop,Raymond,Thane Municipal Transport,5,platform,208,0,8
Feature,Point,72.967132,19.205685,bus_stop,Cadbury Junction 2,Thane Municipal Transport,6,platform,209,0,8
Feature,Point,72.968672,19.204062,bus_stop,Cadbury Junction,Thane Municipal Transport,7,platform,210,0,8
Feature,Point,72.967174,19.202622,bus_stop,Sidheswar Talav,Thane Municipal Transport,8,platform,211,0,8
Feature,Point,72.964698,19.20024,bus_stop,Sambhaji Nagar,Thane Municipal Transport,9,platform,212,0,8
Feature,Point,72.963457,19.198847,bus_stop,Nitin Company,Thane Municipal Transport,10,platform,213,0,8
Feature,Point,72.962631,19.195841,bus_stop,Louiswadi,Thane Municipal Transport,11,platform,214,0,8
Feature,Point,72.963048,19.192875,bus_stop,Murfi Company,Thane Municipal Transport,12,platform,215,0,8
Feature,Point,72.96366,19.189455,bus_stop,Teen Hath Naka,Thane Municipal Transport,13,platform,216,0,8
Feature,Point,72.965048,19.187983,bus_stop,Income Tax Office,Thane Municipal Transport,14,platform,217,0,8
Feature,Point,72.966892,19.187589,bus_stop,Malhar Cinema,Thane Municipal Transport,15,platform,218,0,8
Feature,Point,72.968558,19.187368,bus_stop,Ice Factory,Thane Municipal Transport,16,platform,219,0,8
Feature,Point,72.971389,19.187541,bus_stop,A.K. Joshi Vidyalaya,Thane Municipal Transport,17,platform,220,0,8
Feature,Point,72.9736598,19.1878637,bus_stop,Gaondevi,Thane Municipal Transport,18,platform,221,0,8
Feature,Point,72.976106,19.186713,bus_stop,Thane Station West SATIS,Thane Municipal Transport,19,platform,222,0,8
Feature,Point,72.9571275,19.1737091,bus_stop,Mulund Station (W),Thane Municipal Transport,1,platform,2522,0,104
Feature,Point,72.9505954,19.1787414,bus_stop,Gyan Sarita,Thane Municipal Transport,2,platform,2523,0,104
Feature,Point,72.9452706,19.1792006,bus_stop,Kamgar Hospital,Thane Municipal Transport,3,platform,2524,0,104
Feature,Point,72.9502413,19.1834741,bus_stop,Santoshi Mata Temple,Thane Municipal Transport,4,platform,2525,0,104
Feature,Point,72.9580211,19.1857251,bus_stop,Mulund Check Naka,Thane Municipal Transport,5,platform,2526,0,104
Feature,Point,72.9551377,19.187406,bus_stop,Automatic Company,Thane Municipal Transport,6,platform,2258,0,104
Feature,Point,72.9552464,19.1910993,bus_stop,M.I.D.C,Thane Municipal Transport,7,platform,2527,0,104
Feature,Point,72.953864,19.1933758,bus_stop,Road No 16,Thane Municipal Transport,8,platform,2528,0,104
Feature,Point,72.9516703,19.1943166,bus_stop,MTNL,Thane Municipal Transport,9,platform,2529,0,104
Feature,Point,72.9495774,19.1945316,bus_stop,Road No 22,Thane Municipal Transport,10,platform,2530,0,104
Feature,Point,72.9453144,19.1950826,bus_stop,Road No 27,Thane Municipal Transport,11,platform,2531,0,104
Feature,Point,72.9431341,19.1953599,bus_stop,ITI Thane,Thane Municipal Transport,12,platform,2532,0,104
Feature,Point,72.9459006,19.2015921,bus_stop,Wagle Agar,Thane Municipal Transport,13,platform,2533,0,104
Feature,Point,72.9459009,19.2015925,bus_stop,Wagle Agar,Thane Municipal Transport,1,platform,2534,1,104
Feature,Point,72.9491911,19.2007714,bus_stop,Sathe Nagar,Thane Municipal Transport,2,platform,2535,1,104
Feature,Point,72.9492237,19.1988516,bus_stop,Passport Office,Thane Municipal Transport,3,platform,2536,1,104
Feature,Point,72.9430932,19.1955294,bus_stop,ITI Thane,Thane Municipal Transport,4,platform,2537,1,104
Feature,Point,72.9453411,19.1952359,bus_stop,Road No 27,Thane Municipal Transport,5,platform,2538,1,104
Feature,Point,72.9497658,19.1947265,bus_stop,Road No 22,Thane Municipal Transport,6,platform,2539,1,104
Feature,Point,72.9537724,19.1937063,bus_stop,Road No 16,Thane Municipal Transport,7,platform,2540,1,104
Feature,Point,72.9554525,19.1911635,bus_stop,M.I.D.C,Thane Municipal Transport,8,platform,2541,1,104
Feature,Point,72.9553859,19.1877049,bus_stop,Automatic Company,Thane Municipal Transport,9,platform,2542,1,104
Feature,Point,72.9566804,19.1858524,bus_stop,Mulund Check Naka,Thane Municipal Transport,10,platform,2543,1,104
Feature,Point,72.9543665,19.1842828,bus_stop,Mulund,Thane Municipal Transport,11,platform,2544,1,104
Feature,Point,72.9502494,19.1833434,bus_stop,Santoshi Mata Temple,Thane Municipal Transport,12,platform,2545,1,104
Feature,Point,72.9457091,19.179617,bus_stop,Kamgar Hospital,Thane Municipal Transport,13,platform,2546,1,104
Feature,Point,72.9505489,19.1786076,bus_stop,Gyan Sarita,Thane Municipal Transport,14,platform,2547,1,104
Feature,Point,72.9527894,19.1754957,bus_stop,Pach Rasta Devidayal,Thane Municipal Transport,15,platform,2548,1,104
Feature,Point,72.9580466,19.1738399,bus_stop,Mulund Station (W),Thane Municipal Transport,16,platform,2549,1,104
Feature,Point,72.8575557,19.229678,bus_stop,Borivali Station (East),Thane Municipal Transport,1,platform,2550,,127
Feature,Point,72.8625051,19.2313587,bus_stop,Omkareshwar Mandir,Thane Municipal Transport,2,platform,2551,,127
Feature,Point,72.8644934,19.2246222,bus_stop,Devipada,Thane Municipal Transport,3,platform,2552,,127
Feature,Point,72.8669956,19.2173648,bus_stop,Magathane Depot / Magathane Telephone Exchange,Thane Municipal Transport,4,platform,2553,,127
Feature,Point,72.8686428,19.2115636,bus_stop,Dattani Park,Thane Municipal Transport,5,platform,2554,,127
Feature,Point,72.8611173,19.1991328,bus_stop,Bandongri,Thane Municipal Transport,6,platform,2555,,127
Feature,Point,72.8585293,19.1880237,bus_stop,Dindoshi Police Station,Thane Municipal Transport,7,platform,2556,,127
Feature,Point,72.858521,19.1847257,bus_stop,Kurar Village,Thane Municipal Transport,8,platform,2557,,127
Feature,Point,72.8586909,19.1793917,bus_stop,Pathan Wadi,Thane Municipal Transport,9,platform,2558,,127
Feature,Point,72.8592514,19.1706406,bus_stop,Virwani Estate /Sarvoday Nagar,Thane Municipal Transport,10,platform,2559,,127
Feature,Point,72.8588838,19.1670834,bus_stop,Goregaon Check Naka,Thane Municipal Transport,11,platform,2560,,127
Feature,Point,72.8572354,19.1545332,bus_stop,Vanrai / Mhada Colony,Thane Municipal Transport,12,platform,2561,,127
Feature,Point,72.8553088,19.1345304,bus_stop,Ismail Yusuf College,Thane Municipal Transport,13,platform,2562,,127
Feature,Point,72.8554895,19.1296125,bus_stop,Shankarwadi,Thane Municipal Transport,14,platform,2563,,127
Feature,Point,72.8561814,19.1211263,bus_stop,Gundavali,Thane Municipal Transport,15,platform,2564,,127
Feature,Point,72.8546346,19.1126253,bus_stop,Bisleri Signal Andheri Station Highway,Thane Municipal Transport,16,platform,2565,,127
Feature,Point,72.8540603,19.1053657,bus_stop,Hanuman Road,Thane Municipal Transport,17,platform,2566,,127
Feature,Point,72.8543848,19.0998096,bus_stop,Sambhaji Nagar,Thane Municipal Transport,18,platform,2567,,127
Feature,Point,72.8464878,19.0918642,bus_stop,Vile Parle Sub Way,Thane Municipal Transport,19,platform,2568,,127
Feature,Point,72.8441532,19.0904685,bus_stop,Milan Sub Way,Thane Municipal Transport,20,platform,2569,,127
Feature,Point,72.8469125,19.0682136,bus_stop,Teachers Colony,Thane Municipal Transport,21,platform,2570,,127
Feature,Point,72.8470218,19.0534919,bus_stop,Kalanagar Highway,Thane Municipal Transport,22,platform,2571,,127
Feature,Point,72.851061,19.055448,bus_stop,M.M.R.T,Thane Municipal Transport,23,platform,2572,,127
Feature,Point,72.854229,19.057579,bus_stop,BKC,Thane Municipal Transport,24,platform,2573,,127
Feature,Point,72.8542294,19.057579,bus_stop,BKC,Thane Municipal Transport,1,platform,2574,,127
Feature,Point,72.851061,19.0554483,bus_stop,M.M.R.T,Thane Municipal Transport,2,platform,2575,,127
Feature,Point,72.8467723,19.0532543,bus_stop,Kalanagar Highway,Thane Municipal Transport,3,platform,2576,,127
Feature,Point,72.8465026,19.0679229,bus_stop,Teachers Colony,Thane Municipal Transport,4,platform,2577,,127
Feature,Point,72.8435537,19.0900414,bus_stop,Milan Sub Way,Thane Municipal Transport,5,platform,2578,,127
Feature,Point,72.8457928,19.0920139,bus_stop,Vile Parle Sub Way,Thane Municipal Transport,6,platform,2579,,127
Feature,Point,72.854006,19.0998391,bus_stop,Sambhaji Nagar,Thane Municipal Transport,7,platform,2580,,127
Feature,Point,72.8536455,19.1051671,bus_stop,Hanuman Road,Thane Municipal Transport,8,platform,2581,,127
Feature,Point,72.8544128,19.1129689,bus_stop,Bisleri Signal Andheri Station Highway,Thane Municipal Transport,9,platform,2582,,127
Feature,Point,72.8556345,19.1205272,bus_stop,Gundavali,Thane Municipal Transport,10,platform,2583,,127
Feature,Point,72.8550416,19.1286017,bus_stop,Shankarwadi,Thane Municipal Transport,11,platform,2584,,127
Feature,Point,72.8548448,19.1352193,bus_stop,Ismail Yusuf College,Thane Municipal Transport,12,platform,2585,,127
Feature,Point,72.8564448,19.1541606,bus_stop,Vanrai / Mhada Colony,Thane Municipal Transport,13,platform,2586,,127
Feature,Point,72.8582117,19.1656378,bus_stop,Goregaon Check Naka,Thane Municipal Transport,14,platform,2587,,127
Feature,Point,72.8589061,19.1712172,bus_stop,Virwani Estate /Sarvoday Nagar,Thane Municipal Transport,15,platform,2588,,127
Feature,Point,72.8582764,19.1817627,bus_stop,Pathan Wadi,Thane Municipal Transport,16,platform,2589,,127
Feature,Point,72.8582793,19.1844958,bus_stop,Kurar Village,Thane Municipal Transport,17,platform,2590,,127
Feature,Point,72.8581902,19.189613,bus_stop,Dindoshi Police Station,Thane Municipal Transport,18,platform,2591,,127
Feature,Point,72.8608615,19.1993015,bus_stop,Bandongri,Thane Municipal Transport,19,platform,2592,,127
Feature,Point,72.8683089,19.2114151,bus_stop,Dattani Park,Thane Municipal Transport,20,platform,2593,,127
Feature,Point,72.8654933,19.2204414,bus_stop,Magathane Depot / Magathane Telephone Exchange,Thane Municipal Transport,21,platform,2594,,127
Feature,Point,72.8636392,19.2258743,bus_stop,Devipada,Thane Municipal Transport,22,platform,2595,,127
Feature,Point,72.8625826,19.2312694,bus_stop,Omkareshwar Mandir,Thane Municipal Transport,23,platform,2596,,127
Feature,Point,72.857554,19.2296793,bus_stop,Borivali Station (East),Thane Municipal Transport,24,platform,2597,,127
Feature,Point,72.9827472,19.2084085,bus_stop,Vrindavan Society,Thane Municipal Transport,1,platform,2598,1,120
Feature,Point,72.9821521,19.206008,bus_stop,Rabodi,Thane Municipal Transport,2,platform,2599,1,120
Feature,Point,72.9802916,19.2060648,bus_stop,Shrirang Society,Thane Municipal Transport,3,platform,2600,1,120
Feature,Point,72.9780849,19.2050459,bus_stop,Desai Bangla,Thane Municipal Transport,4,platform,2601,1,120
Feature,Point,72.9772874,19.2041235,bus_stop,Kolbad,Thane Municipal Transport,5,platform,2602,1,120
Feature,Point,72.9763482,19.2026303,bus_stop,Bramhala Talav / Manorpada,Thane Municipal Transport,6,platform,2603,1,120
Feature,Point,72.9732847,19.2006273,bus_stop,Khopat S.T. Workshop,Thane Municipal Transport,7,platform,2604,1,120
Feature,Point,72.9718237,19.1984368,bus_stop,Makhamali Talav,Thane Municipal Transport,8,platform,2605,1,120
Feature,Point,72.9705431,19.1941978,bus_stop,Vandana Cinema,Thane Municipal Transport,9,platform,2606,1,120
Feature,Point,72.9679452,19.1912493,bus_stop,Hari Niwas,Thane Municipal Transport,10,platform,2607,1,120
Feature,Point,72.9677067,19.1889896,bus_stop,Shahu Maharaj Market,Thane Municipal Transport,11,platform,2608,1,120
Feature,Point,72.9669849,19.1874548,bus_stop,Malhar Cinema,Thane Municipal Transport,12,platform,2609,1,120
Feature,Point,72.9646375,19.1880605,bus_stop,Income Tax Office,Thane Municipal Transport,13,platform,2610,1,120
Feature,Point,72.9627422,19.18772,bus_stop,Teen Hath Naka,Thane Municipal Transport,14,platform,2611,1,120
Feature,Point,72.961395,19.186772,bus_stop,Johnson Company,Thane Municipal Transport,15,platform,2612,1,120
Feature,Point,72.9580218,19.1857475,bus_stop,Kashish Park,Thane Municipal Transport,16,platform,2613,1,120
Feature,Point,72.9565974,19.1855354,bus_stop,Mulund Check Naka (Narpoli),Thane Municipal Transport,17,platform,2614,1,120
Feature,Point,72.9543667,19.1842948,bus_stop,Mulund Check Naka,Thane Municipal Transport,18,platform,2615,1,120
Feature,Point,72.9502486,19.1833373,bus_stop,Santoshi Mata Mandir,Thane Municipal Transport,19,platform,2616,1,120
Feature,Point,72.9457001,19.1796177,bus_stop,Kamagar Hospital Mulund,Thane Municipal Transport,20,platform,2617,1,120
Feature,Point,72.9505962,19.1787327,bus_stop,Gyan Sarita Sada,Thane Municipal Transport,21,platform,2618,1,120
Feature,Point,72.9527892,19.1754848,bus_stop,Pach Rasta Devidayal Road,Thane Municipal Transport,22,platform,2619,1,120
Feature,Point,72.9544274,19.1740445,bus_stop,Mulund Station (W),Thane Municipal Transport,23,platform,2620,1,120
Feature,Point,72.9619243,19.173877,bus_stop,Gavanpada,Thane Municipal Transport,24,platform,2621,1,120
Feature,Point,72.9566451,19.1627376,bus_stop,Kelkar College,Thane Municipal Transport,25,platform,2622,1,120
Feature,Point,72.9565986,19.1629088,bus_stop,Kelkar College,Thane Municipal Transport,1,platform,2623,0,120
Feature,Point,72.9617801,19.1735074,bus_stop,Gavanpada,Thane Municipal Transport,2,platform,2624,0,120
Feature,Point,72.9580283,19.1738434,bus_stop,Mulund Station (W),Thane Municipal Transport,3,platform,2625,0,120
Feature,Point,72.9505623,19.1786126,bus_stop,Gyan Sarita Sada,Thane Municipal Transport,4,platform,2626,0,120
Feature,Point,72.945282,19.1792013,bus_stop,Kamagar Hospital Mulund,Thane Municipal Transport,5,platform,2627,0,120
Feature,Point,72.9483388,19.1833227,bus_stop,Santoshi Mata Mandir,Thane Municipal Transport,6,platform,2628,0,120
Feature,Point,72.9538687,19.1843026,bus_stop,Mulund Check Naka,Thane Municipal Transport,7,platform,2629,0,120
Feature,Point,72.9566814,19.1858247,bus_stop,Mulund Check Naka (Narpoli),Thane Municipal Transport,8,platform,2630,0,120
Feature,Point,72.9581617,19.1859712,bus_stop,Kashish Park,Thane Municipal Transport,9,platform,2631,0,120
Feature,Point,72.9610798,19.1869124,bus_stop,Johnson Company,Thane Municipal Transport,10,platform,2632,0,120
Feature,Point,72.9625635,19.1879274,bus_stop,Teen Hath Naka,Thane Municipal Transport,11,platform,2633,0,120
Feature,Point,72.9649304,19.1880117,bus_stop,Income Tax Office,Thane Municipal Transport,12,platform,2634,0,120
Feature,Point,72.9669844,19.1874507,bus_stop,Malhar Cinema,Thane Municipal Transport,13,platform,2635,0,120
Feature,Point,72.9675387,19.1886663,bus_stop,Shahu Maharaj Market,Thane Municipal Transport,14,platform,2636,0,120
Feature,Point,72.9677019,19.1904622,bus_stop,Hari Niwas,Thane Municipal Transport,15,platform,2637,0,120
Feature,Point,72.9704407,19.1943875,bus_stop,Vandana Cinema,Thane Municipal Transport,16,platform,2638,0,120
Feature,Point,72.9717165,19.1984534,bus_stop,Makhamali Talav,Thane Municipal Transport,17,platform,2639,0,120
Feature,Point,72.9732944,19.2007652,bus_stop,Khopat S.T. Workshop,Thane Municipal Transport,18,platform,2640,0,120
Feature,Point,72.9760037,19.2025532,bus_stop,Bramhala Talav / Manorpada,Thane Municipal Transport,19,platform,2641,0,120
Feature,Point,72.9771686,19.2040666,bus_stop,Kolbad,Thane Municipal Transport,20,platform,2642,0,120
Feature,Point,72.9779881,19.2051835,bus_stop,Desai Bangla,Thane Municipal Transport,21,platform,2643,0,120
Feature,Point,72.9801308,19.2061429,bus_stop,Shrirang Society,Thane Municipal Transport,22,platform,2644,0,120
Feature,Point,72.9821983,19.2060224,bus_stop,Rabodi,Thane Municipal Transport,23,platform,2645,0,120
Feature,Point,72.9827489,19.2084111,bus_stop,Vrindavan Society,Thane Municipal Transport,24,platform,2646,0,120
Feature,Point,72.9793363,19.1886542,bus_stop,Chendani Koliwada,Thane Municipal Transport,1,platform,2647,1,81
Feature,Point,72.9805364,19.1915527,bus_stop,Dadoji Konddev Stadium,Thane Municipal Transport,2,platform,2648,1,81
Feature,Point,72.9825617,19.1939553,bus_stop,Mahagiri Koliwada,Thane Municipal Transport,3,platform,2649,1,81
Feature,Point,72.9832125,19.1973598,bus_stop,Kanhaji Agrh Chowk,Thane Municipal Transport,4,platform,2650,1,81
Feature,Point,72.9873957,19.195837,bus_stop,Kalwa Naka,Thane Municipal Transport,5,platform,2651,1,81
Feature,Point,72.9907932,19.1968393,bus_stop,Manisha Nagar,Thane Municipal Transport,6,platform,2652,1,81
Feature,Point,72.993812,19.1980648,bus_stop,Sahyadri Society,Thane Municipal Transport,7,platform,2653,1,81
Feature,Point,72.9953163,19.1988238,bus_stop,Sukur Park,Thane Municipal Transport,8,platform,2654,1,81
Feature,Point,72.9986344,19.2004717,bus_stop,Datta Wadi,Thane Municipal Transport,9,platform,2655,1,81
Feature,Point,73.0013584,19.2018128,bus_stop,Kharegaon Naka,Thane Municipal Transport,10,platform,2656,1,81
Feature,Point,73.0059072,19.2036346,bus_stop,Prem Nagar,Thane Municipal Transport,11,platform,2657,1,81
Feature,Point,73.0070132,19.2048986,bus_stop,Raj Park,Thane Municipal Transport,12,platform,2658,1,81
Feature,Point,73.0083236,19.2057774,bus_stop,Parsik Nagar,Thane Municipal Transport,13,platform,2659,1,81
Feature,Point,73.0097658,19.2066985,bus_stop,Vastu Anand,Thane Municipal Transport,14,platform,2660,1,81
Feature,Point,73.0117378,19.2081026,bus_stop,Subhash Tower,Thane Municipal Transport,15,platform,2661,1,81
Feature,Point,73.0128203,19.2089625,bus_stop,Amrut Angan,Thane Municipal Transport,16,platform,1515,1,81
Feature,Point,73.0138441,19.2095106,bus_stop,Sainath Nagar,Thane Municipal Transport,17,platform,2662,1,81
Feature,Point,73.0157023,19.2106192,bus_stop,Reti Bunder Circle,Thane Municipal Transport,18,platform,2663,1,81
Feature,Point,73.0165693,19.2100284,bus_stop,Reti Bunder Circle,Thane Municipal Transport,1,platform,2664,0,81
Feature,Point,73.0132486,19.2090455,bus_stop,Sainath Nagar,Thane Municipal Transport,2,platform,2665,0,81
Feature,Point,73.0114712,19.2076782,bus_stop,Subhash Tower,Thane Municipal Transport,3,platform,2666,0,81
Feature,Point,73.00974,19.2064771,bus_stop,Vastu Anand,Thane Municipal Transport,4,platform,2667,0,81
Feature,Point,73.00857,19.2057264,bus_stop,Parsik Nagar,Thane Municipal Transport,5,platform,2668,0,81
Feature,Point,73.0073343,19.2049847,bus_stop,Raj Park,Thane Municipal Transport,6,platform,2669,0,81
Feature,Point,73.0058755,19.2034801,bus_stop,Prem Nagar,Thane Municipal Transport,7,platform,2670,0,81
Feature,Point,73.0016864,19.2018326,bus_stop,Kharegaon Naka,Thane Municipal Transport,8,platform,2671,0,81
Feature,Point,72.9990837,19.2004966,bus_stop,Datta Wadi,Thane Municipal Transport,9,platform,2672,0,81
Feature,Point,72.995352,19.1986771,bus_stop,Sukur Park,Thane Municipal Transport,10,platform,2673,0,81
Feature,Point,72.9935873,19.1977866,bus_stop,Sahyadri Society,Thane Municipal Transport,11,platform,2674,0,81
Feature,Point,72.99172,19.1970023,bus_stop,Manisha Nagar,Thane Municipal Transport,12,platform,2675,0,81
Feature,Point,72.987394,19.1958369,bus_stop,Kalwa Naka,Thane Municipal Transport,13,platform,2676,0,81
Feature,Point,72.9831186,19.1971908,bus_stop,Kanhaji Agrh Chowk,Thane Municipal Transport,14,platform,2677,0,81
Feature,Point,72.9827401,19.1941138,bus_stop,Mahagiri Koliwada,Thane Municipal Transport,15,platform,2678,0,81
Feature,Point,72.9807927,19.1919447,bus_stop,Dadoji Konddev Stadium,Thane Municipal Transport,16,platform,2679,0,81
Feature,Point,72.9798204,19.1878661,bus_stop,Chendani Koliwada,Thane Municipal Transport,17,platform,2680,0,81
Feature,Point,72.9935889,19.1977758,bus_stop,Sahyadri Society,Thane Municipal Transport,1,platform,2681,1,38
Feature,Point,72.9917222,19.1969913,bus_stop,Manisha Nagar,Thane Municipal Transport,2,platform,2682,1,38
Feature,Point,72.9873989,19.1958357,bus_stop,Kalwa Naka,Thane Municipal Transport,3,platform,2683,1,38
Feature,Point,72.9831181,19.1971796,bus_stop,Kanhaji Agrh Chowk,Thane Municipal Transport,4,platform,2684,1,38
Feature,Point,72.9812301,19.1988955,bus_stop,R.T.O Thane,Thane Municipal Transport,5,platform,2685,1,38
Feature,Point,72.9799618,19.1979204,bus_stop,Central Maidan,Thane Municipal Transport,6,platform,2686,1,38
Feature,Point,72.9785371,19.1970289,bus_stop,Court Naka,Thane Municipal Transport,7,platform,2687,1,38
Feature,Point,72.9778986,19.1946205,bus_stop,Jambhali Naka,Thane Municipal Transport,8,platform,2688,1,38
Feature,Point,72.976918,19.1905214,bus_stop,Prabhat Cinema,Thane Municipal Transport,9,platform,2689,1,38
Feature,Point,72.9772115,19.1871391,bus_stop,Thane Station West SATIS,Thane Municipal Transport,10,platform,2690,1,38
Feature,Point,72.977211,19.1871379,bus_stop,Thane Station West SATIS,Thane Municipal Transport,1,platform,2693,0,38
Feature,Point,72.9767113,19.1937996,bus_stop,Jambhali Naka,Thane Municipal Transport,2,platform,2694,0,38
Feature,Point,72.9772445,19.1971028,bus_stop,Court Naka,Thane Municipal Transport,3,platform,2695,0,38
Feature,Point,72.9788233,19.1990737,bus_stop,Civil Hospital,Thane Municipal Transport,4,platform,2696,0,38
Feature,Point,72.9812884,19.1990875,bus_stop,R.T.O Thane,Thane Municipal Transport,5,platform,2697,0,38
Feature,Point,72.9832139,19.1973595,bus_stop,Kanhaji Agrh Chowk,Thane Municipal Transport,6,platform,2698,0,38
Feature,Point,72.9875938,19.1964163,bus_stop,Kalwa Naka,Thane Municipal Transport,7,platform,2699,0,38
Feature,Point,72.9907896,19.1968489,bus_stop,Manisha Nagar,Thane Municipal Transport,8,platform,2700,0,38
Feature,Point,72.9938122,19.1980717,bus_stop,Sahyadri Society,Thane Municipal Transport,9,platform,2701,0,38
Feature,Point,72.976106,19.186713,bus_stop,Thane Station West SATIS,Thane Municipal Transport,1,platform,223,1,16
Feature,Point,72.9767479,19.1939163,bus_stop,Talao Pali,Thane Municipal Transport,2,platform,224,1,16
Feature,Point,72.977248,19.196937,bus_stop,Tembhi Naka / Court Naka,Thane Municipal Transport,3,platform,225,1,16
Feature,Point,72.977478,19.199017,bus_stop,Civil Hospital,Thane Municipal Transport,4,platform,226,1,16
Feature,Point,72.975575,19.200687,bus_stop,New Shakti Mill / Ambedkar Road,Thane Municipal Transport,5,platform,227,1,16
Feature,Point,72.9721107,19.2030293,bus_stop,Khopat,Thane Municipal Transport,6,platform,228,1,16
Feature,Point,72.969842,19.204147,bus_stop,Pujani Estate,Thane Municipal Transport,7,platform,229,1,16
Feature,Point,72.9671407,19.2054235,bus_stop,Cadbury Company,Thane Municipal Transport,8,platform,230,1,16
Feature,Point,72.964142,19.208022,bus_stop,J K Gram,Thane Municipal Transport,9,platform,231,1,16
Feature,Point,72.9618257,19.2100203,bus_stop,Vartak Nagar Naka,Thane Municipal Transport,10,platform,232,1,16
Feature,Point,72.960175,19.212158,bus_stop,Building No 3,Thane Municipal Transport,11,platform,233,1,16
Feature,Point,72.959075,19.213467,bus_stop,S T Juna Thamba / Shastri Nagar,Thane Municipal Transport,12,platform,234,1,16
Feature,Point,72.957842,19.214933,bus_stop,Devdaya Nagar,Thane Municipal Transport,13,platform,235,1,16
Feature,Point,72.956302,19.2157169,bus_stop,Shivai Nagar,Thane Municipal Transport,14,platform,236,1,16
Feature,Point,72.954367,19.21722,bus_stop,Khandelwal,Thane Municipal Transport,15,platform,237,1,16
Feature,Point,72.952788,19.218637,bus_stop,Bhu Kendra,Thane Municipal Transport,16,platform,238,1,16
Feature,Point,72.949562,19.224512,bus_stop,Air Force Station,Thane Municipal Transport,17,platform,239,1,16
Feature,Point,72.9483443,19.2291593,bus_stop,Yeoor Gaon,Thane Municipal Transport,18,platform,240,1,16
Feature,Point,72.948033,19.231545,bus_stop,Exotica,Thane Municipal Transport,19,platform,241,1,16
Feature,Point,72.9461797,19.233575,bus_stop,Swanand Ashram,Thane Municipal Transport,20,platform,242,1,16
Feature,Point,72.9451686,19.2351511,bus_stop,Ram Mandir,Thane Municipal Transport,21,platform,243,1,16
Feature,Point,72.9439169,19.2381292,bus_stop,Bhendi Pada,Thane Municipal Transport,22,platform,244,1,16
Feature,Point,72.943232,19.24015,bus_stop,Yeoor / Patonapada,Thane Municipal Transport,23,platform,245,1,16
Feature,Point,72.8579631,19.2815867,bus_stop,Mira Road Station,Thane Municipal Transport,1,platform,2702,0,75
Feature,Point,72.8638375,19.2835357,bus_stop,Umrao,Thane Municipal Transport,2,platform,2703,0,75
Feature,Point,72.870776,19.280336,bus_stop,Jangid Circle,Thane Municipal Transport,3,platform,2704,0,75
Feature,Point,72.8742401,19.2821542,bus_stop,Silver Park,Thane Municipal Transport,4,platform,2705,0,75
Feature,Point,72.8772378,19.279977,bus_stop,Hatkesh,Thane Municipal Transport,5,platform,2706,0,75
Feature,Point,72.8832494,19.2728068,bus_stop,Kashimira,Thane Municipal Transport,6,platform,2707,0,75
Feature,Point,72.8884896,19.2761877,bus_stop,Western Hotel / Lakshmi Baug,Thane Municipal Transport,7,platform,2708,0,75
Feature,Point,72.9047696,19.284982,bus_stop,Varsova / Fountain Hotel,Thane Municipal Transport,8,platform,2709,0,75
Feature,Point,72.9160729,19.2756423,bus_stop,Chena Bridge,Thane Municipal Transport,9,platform,2710,0,75
Feature,Point,72.9226495,19.2790394,bus_stop,Kajupada,Thane Municipal Transport,10,platform,2711,0,75
Feature,Point,72.9408454,19.2856577,bus_stop,Jagannath Mahadev Temple,Thane Municipal Transport,11,platform,2712,0,75
Feature,Point,72.9655661,19.2696963,bus_stop,Kasarvadavali Naka,Thane Municipal Transport,12,platform,2713,0,75
Feature,Point,72.9668789,19.2669816,bus_stop,Sainath Nagar,Thane Municipal Transport,13,platform,2714,0,75
Feature,Point,72.967763,19.2648273,bus_stop,Anand Nagar,Thane Municipal Transport,14,platform,2715,0,75
Feature,Point,72.9699672,19.2594199,bus_stop,Batata Company,Thane Municipal Transport,15,platform,2716,0,75
Feature,Point,72.9725539,19.2529058,bus_stop,Wagh Bill Naka,Thane Municipal Transport,16,platform,2717,0,75
Feature,Point,72.9758022,19.239327,bus_stop,Mulla Bagh,Thane Municipal Transport,17,platform,2718,0,75
Feature,Point,72.9762869,19.235285,bus_stop,Manpada,Thane Municipal Transport,18,platform,2719,0,75
Feature,Point,72.9768786,19.2301961,bus_stop,Lockim / R Mall,Thane Municipal Transport,19,platform,2720,0,75
Feature,Point,72.9776347,19.2239244,bus_stop,Tattvagyan Vidyapeeth,Thane Municipal Transport,20,platform,2721,0,75
Feature,Point,72.9781356,19.2157383,bus_stop,Ashapura Mandir,Thane Municipal Transport,21,platform,2722,0,75
Feature,Point,72.9772734,19.2105737,bus_stop,Muktai Nagar,Thane Municipal Transport,22,platform,2723,0,75
Feature,Point,72.9771341,19.2088867,bus_stop,Gokul Nagar,Thane Municipal Transport,23,platform,2724,0,75
Feature,Point,72.9774944,19.2071098,bus_stop,Castle Mill,Thane Municipal Transport,24,platform,2725,0,75
Feature,Point,72.9782634,19.2045533,bus_stop,Holly Cross School,Thane Municipal Transport,25,platform,2726,0,75
Feature,Point,72.9795586,19.201158,bus_stop,Police Line,Thane Municipal Transport,26,platform,2727,0,75
Feature,Point,72.9875949,19.1963966,bus_stop,Kalwa Naka,Thane Municipal Transport,27,platform,2728,0,75
Feature,Point,72.9907903,19.1968484,bus_stop,Manisha Nagar,Thane Municipal Transport,28,platform,2729,0,75
Feature,Point,73.0013565,19.2018146,bus_stop,Kharegaon Naka,Thane Municipal Transport,29,platform,2730,0,75
Feature,Point,73.0138434,19.2095195,bus_stop,Sainath Nagar,Thane Municipal Transport,30,platform,2731,0,75
Feature,Point,73.0157015,19.210622,bus_stop,Reti Bunder Circle,Thane Municipal Transport,31,platform,2732,0,75
Feature,Point,73.0178146,19.2070781,bus_stop,Retibunder 3,Thane Municipal Transport,32,platform,2733,0,75
Feature,Point,73.0199345,19.2034565,bus_stop,Retibunder 2,Thane Municipal Transport,33,platform,2734,0,75
Feature,Point,73.0223724,19.2004028,bus_stop,Retuibunder 1,Thane Municipal Transport,34,platform,2735,0,75
Feature,Point,73.0228213,19.1900775,bus_stop,Mumbra,Thane Municipal Transport,35,platform,2736,0,75
Feature,Point,73.0213086,19.1857956,bus_stop,Lalit Clinic,Thane Municipal Transport,36,platform,2737,0,75
Feature,Point,73.0225168,19.183541,bus_stop,Mumbra Police Station,Thane Municipal Transport,37,platform,2738,0,75
Feature,Point,73.0230946,19.1746934,bus_stop,Amrut Nagar,Thane Municipal Transport,38,platform,2739,0,75
Feature,Point,73.0236427,19.1719916,bus_stop,Kismat Colony,Thane Municipal Transport,39,platform,2740,0,75
Feature,Point,73.0245739,19.1701109,bus_stop,Tanwar Nagar,Thane Municipal Transport,40,platform,2741,0,75
Feature,Point,73.0259529,19.1680986,bus_stop,Kaka Nagar,Thane Municipal Transport,41,platform,2742,0,75
Feature,Point,73.0270827,19.1664979,bus_stop,Kausa,Thane Municipal Transport,42,platform,2743,0,75
Feature,Point,73.0284303,19.1645503,bus_stop,Kausa Jama Masjid,Thane Municipal Transport,43,platform,2744,0,75
Feature,Point,73.03001731,19.16046347,bus_stop,Khalsekar,Thane Municipal Transport,44,platform,2745,0,75
Feature,Point,73.0316521,19.1575127,bus_stop,Bharat Gears,Thane Municipal Transport,45,platform,2746,0,75
Feature,Point,73.0313137,19.157587,bus_stop,Bharat Gears,Thane Municipal Transport,1,platform,2747,1,75
Feature,Point,73.0284837,19.1633165,bus_stop,Shimla Park,Thane Municipal Transport,2,platform,2748,1,75
Feature,Point,73.0283333,19.1643098,bus_stop,Kousa Jama Masjid,Thane Municipal Transport,3,platform,2749,1,75
Feature,Point,73.026919,19.1664791,bus_stop,Kousa,Thane Municipal Transport,4,platform,2750,1,75
Feature,Point,73.024443,19.1700719,bus_stop,Tanwar Nagar,Thane Municipal Transport,5,platform,2751,1,75
Feature,Point,73.0234517,19.1720223,bus_stop,Jalim Kura Mandir / Kismat Colony,Thane Municipal Transport,6,platform,2752,1,75
Feature,Point,73.0230145,19.1739743,bus_stop,Amrut Nagar,Thane Municipal Transport,7,platform,2753,1,75
Feature,Point,73.0226532,19.1774723,bus_stop,Mumbra Shiv Mandir,Thane Municipal Transport,8,platform,2754,1,75
Feature,Point,73.0224167,19.1802254,bus_stop,Sanjaya Nagar,Thane Municipal Transport,9,platform,2755,1,75
Feature,Point,73.0223411,19.1832987,bus_stop,Mumbra Police Station,Thane Municipal Transport,10,platform,2756,1,75
Feature,Point,73.0226129,19.1899457,bus_stop,Mumbra,Thane Municipal Transport,11,platform,2757,1,75
Feature,Point,73.0204258,19.2025627,bus_stop,Retibndar No.2,Thane Municipal Transport,12,platform,2758,1,75
Feature,Point,73.0165748,19.2100289,bus_stop,Reti Bunder Circle,Thane Municipal Transport,13,platform,2759,1,75
Feature,Point,73.0132399,19.2090331,bus_stop,Sainath Nagar,Thane Municipal Transport,14,platform,2760,1,75
Feature,Point,73.0072484,19.20485948,bus_stop,Raj Park,Thane Municipal Transport,15,platform,2761,1,75
Feature,Point,73.00457054,19.20294476,bus_stop,Saffire,Thane Municipal Transport,16,platform,2762,1,75
Feature,Point,73.0016871,19.2018257,bus_stop,Kharegaon Naka,Thane Municipal Transport,17,platform,2763,1,75
Feature,Point,72.995352,19.1986817,bus_stop,Sukur Park,Thane Municipal Transport,18,platform,2764,1,75
Feature,Point,72.9935878,19.1977753,bus_stop,Sahyadri Society,Thane Municipal Transport,19,platform,2765,1,75
Feature,Point,72.9917207,19.1969826,bus_stop,Manisha Nagar,Thane Municipal Transport,20,platform,2766,1,75
Feature,Point,72.9874003,19.1958364,bus_stop,Kalwa Naka,Thane Municipal Transport,21,platform,2767,1,75
Feature,Point,72.9812305,19.1988962,bus_stop,R.T.O Thane,Thane Municipal Transport,22,platform,2768,1,75
Feature,Point,72.9792971,19.2012512,bus_stop,Police Line,Thane Municipal Transport,23,platform,2769,1,75
Feature,Point,72.9799637,19.2030593,bus_stop,Rabodi,Thane Municipal Transport,24,platform,2770,1,75
Feature,Point,72.9771852,19.207308,bus_stop,Castle Mill,Thane Municipal Transport,25,platform,2771,1,75
Feature,Point,72.977019,19.2093516,bus_stop,Gokul Nagar,Thane Municipal Transport,26,platform,2772,1,75
Feature,Point,72.9771201,19.2108308,bus_stop,Muktai Nagar,Thane Municipal Transport,27,platform,2773,1,75
Feature,Point,72.9773378,19.2144877,bus_stop,Majiwada Naka,Thane Municipal Transport,28,platform,2774,1,75
Feature,Point,72.9777805,19.2162557,bus_stop,Ashapura Mandir,Thane Municipal Transport,29,platform,2775,1,75
Feature,Point,72.9775214,19.2210928,bus_stop,Kapurbawdi,Thane Municipal Transport,30,platform,2776,1,75
Feature,Point,72.9773098,19.2234478,bus_stop,Tattvagyan Vidyapeeth,Thane Municipal Transport,31,platform,2777,1,75
Feature,Point,72.9765502,19.2298508,bus_stop,Lokim Company / R Mall,Thane Municipal Transport,32,platform,2778,1,75
Feature,Point,72.975892,19.2349982,bus_stop,Manpada,Thane Municipal Transport,33,platform,2779,1,75
Feature,Point,72.9754824,19.2390518,bus_stop,Mulla Bagh,Thane Municipal Transport,34,platform,2780,1,75
Feature,Point,72.9752877,19.2473514,bus_stop,Patli Pada,Thane Municipal Transport,35,platform,2781,1,75
Feature,Point,72.9722747,19.2527317,bus_stop,Wagh Bill Naka,Thane Municipal Transport,36,platform,2782,1,75
Feature,Point,72.9704797,19.2571146,bus_stop,Panchamrit,Thane Municipal Transport,37,platform,2783,1,75
Feature,Point,72.9630672,19.2721207,bus_stop,Garib Nagar,Thane Municipal Transport,38,platform,2784,1,75
Feature,Point,72.9518944,19.2835373,bus_stop,Bhaindar Pada,Thane Municipal Transport,39,platform,2785,1,75
Feature,Point,72.9362916,19.2850974,bus_stop,Gaimukh,Thane Municipal Transport,40,platform,2786,1,75
Feature,Point,72.9225697,19.2787707,bus_stop,Kajupada,Thane Municipal Transport,41,platform,2787,1,75
Feature,Point,72.91645,19.2757892,bus_stop,Chena Bridge,Thane Municipal Transport,42,platform,2788,1,75
Feature,Point,72.9069312,19.2823045,bus_stop,"Shashkiy Vishram Gruh Versova, Ghodbunder",Thane Municipal Transport,43,platform,2789,1,75
Feature,Point,72.9045311,19.2849119,bus_stop,Varsova / Fountain Hotel,Thane Municipal Transport,44,platform,2790,1,75
Feature,Point,72.8932576,19.2868125,bus_stop,Ghodbunder Village,Thane Municipal Transport,45,platform,2791,1,75
Feature,Point,72.8890977,19.276138,bus_stop,Western Hotel / Lakshmi Baug,Thane Municipal Transport,46,platform,2792,1,75
Feature,Point,72.8860043,19.2741233,bus_stop,Kashi Village,Thane Municipal Transport,47,platform,2793,1,75
Feature,Point,72.8822975,19.2714734,bus_stop,Kashimira,Thane Municipal Transport,48,platform,2794,1,75
Feature,Point,72.8788423,19.2784498,bus_stop,Green Park / Pleasant Park,Thane Municipal Transport,49,platform,2795,1,75
Feature,Point,72.8739458,19.2820123,bus_stop,Silver Park,Thane Municipal Transport,50,platform,2796,1,75
Feature,Point,72.8580994,19.2813686,bus_stop,Mira Road Station,Thane Municipal Transport,51,platform,2797,1,75
Feature,Point,72.9565895,19.162909,bus_stop,Kelkar College,Thane Municipal Transport,1,platform,2798,0,121
Feature,Point,72.9597866,19.1660172,bus_stop,Sane Guruji Chowk,Thane Municipal Transport,2,platform,2799,0,121
Feature,Point,72.9616998,19.1707653,bus_stop,Endavour Society,Thane Municipal Transport,3,platform,2800,0,121
Feature,Point,72.9617686,19.1735087,bus_stop,Gavanpada,Thane Municipal Transport,4,platform,2801,0,121
Feature,Point,72.9580454,19.173848,bus_stop,Mulund Station (W),Thane Municipal Transport,5,platform,2802,0,121
Feature,Point,72.9519274,19.1755892,bus_stop,Pach Rasta,Thane Municipal Transport,6,platform,2803,0,121
Feature,Point,72.9505497,19.1786106,bus_stop,Gyan Sarita Sada,Thane Municipal Transport,7,platform,2804,0,121
Feature,Point,72.9452708,19.1792006,bus_stop,Kamagar Hospital Mulund,Thane Municipal Transport,8,platform,2805,0,121
Feature,Point,72.9502419,19.1835297,bus_stop,Santoshi Mata Mandir,Thane Municipal Transport,9,platform,2806,0,121
Feature,Point,72.9543267,19.1844966,bus_stop,Mulund Check Naka,Thane Municipal Transport,10,platform,2807,0,121
Feature,Point,72.9581603,19.185982,bus_stop,Kashish Park,Thane Municipal Transport,11,platform,2808,0,121
Feature,Point,72.9610779,19.1869222,bus_stop,Johnson Company,Thane Municipal Transport,12,platform,2809,0,121
Feature,Point,72.9625624,19.1879402,bus_stop,Teen Hath Naka,Thane Municipal Transport,13,platform,2810,0,121
Feature,Point,72.9623163,19.1956473,bus_stop,Louiswadi,Thane Municipal Transport,14,platform,2811,0,121
Feature,Point,72.9628978,19.1991464,bus_stop,Nitin Company,Thane Municipal Transport,15,platform,2812,0,121
Feature,Point,72.9679266,19.2039759,bus_stop,Cadbury Juction,Thane Municipal Transport,16,platform,2813,0,121
Feature,Point,72.9730963,19.2089575,bus_stop,Jupiter Hospital,Thane Municipal Transport,17,platform,2814,0,121
Feature,Point,72.9770458,19.21296,bus_stop,Hardas Nagar,Thane Municipal Transport,18,platform,2815,0,121
Feature,Point,72.9773371,19.2144875,bus_stop,Majiwada Naka,Thane Municipal Transport,19,platform,2816,0,121
Feature,Point,72.9777804,19.2162561,bus_stop,Ashapura Mandir,Thane Municipal Transport,20,platform,2817,0,121
Feature,Point,72.977521,19.2210927,bus_stop,Kapurbawdi,Thane Municipal Transport,21,platform,2818,0,121
Feature,Point,72.9773109,19.2234482,bus_stop,Tattvagyan Vidyapeeth,Thane Municipal Transport,22,platform,2819,0,121
Feature,Point,72.9765499,19.2298501,bus_stop,Lokim Company / R Mall,Thane Municipal Transport,23,platform,2820,0,121
Feature,Point,72.9758925,19.2349981,bus_stop,Manpada,Thane Municipal Transport,24,platform,2821,0,121
Feature,Point,72.9754847,19.2390518,bus_stop,Mulla Bagh,Thane Municipal Transport,25,platform,2822,0,121
Feature,Point,72.9755119,19.2410104,bus_stop,Azad Nagar Naka,Thane Municipal Transport,26,platform,2823,0,121
Feature,Point,72.9771555,19.2408153,bus_stop,St. Xaviers School,Thane Municipal Transport,27,platform,2824,0,121
Feature,Point,72.98055,19.2394464,bus_stop,Azad Nagar,Thane Municipal Transport,28,platform,2825,0,121
Feature,Point,72.9815388,19.241329,bus_stop,Brahmand Phase 1/2,Thane Municipal Transport,29,platform,2826,0,121
Feature,Point,72.9827308,19.2434471,bus_stop,Swastik Park,Thane Municipal Transport,30,platform,2827,0,121
Feature,Point,72.983566,19.2450233,bus_stop,Brahmand Phase 5,Thane Municipal Transport,31,platform,2828,0,121
Feature,Point,72.9846934,19.246633,bus_stop,Brahmand Phase 6,Thane Municipal Transport,32,platform,2829,0,121
Feature,Point,72.9861329,19.2474809,bus_stop,Brahmand / Dharmacha Pada,Thane Municipal Transport,33,platform,2830,0,121
Feature,Point,72.9861424,19.2474735,bus_stop,Brahmand / Dharmacha Pada,Thane Municipal Transport,1,platform,2831,1,121
Feature,Point,72.9846804,19.2464834,bus_stop,Brahmand Phase 6,Thane Municipal Transport,2,platform,2832,1,121
Feature,Point,72.9835697,19.2449148,bus_stop,Brahmand Phase 5,Thane Municipal Transport,3,platform,2833,1,121
Feature,Point,72.9829324,19.2433851,bus_stop,Swastik Park,Thane Municipal Transport,4,platform,2834,1,121
Feature,Point,72.98123833,19.241155,bus_stop,"Brahmand Phase 1,2",Thane Municipal Transport,5,platform,2835,1,121
Feature,Point,72.9806724,19.2394614,bus_stop,Azad Nagar,Thane Municipal Transport,6,platform,2836,1,121
Feature,Point,72.9771555,19.2408147,bus_stop,St. Xaviers School,Thane Municipal Transport,7,platform,2837,1,121
Feature,Point,72.9759219,19.2410253,bus_stop,Azad Nagar Naka,Thane Municipal Transport,8,platform,2838,1,121
Feature,Point,72.9758017,19.239326,bus_stop,Mulla Bagh,Thane Municipal Transport,9,platform,2839,1,121
Feature,Point,72.9762868,19.2352851,bus_stop,Manpada,Thane Municipal Transport,10,platform,2840,1,121
Feature,Point,72.9768598,19.2301966,bus_stop,Lokim Company / R Mall,Thane Municipal Transport,11,platform,2841,1,121
Feature,Point,72.9776175,19.2239243,bus_stop,Tattvagyan Vidyapeeth,Thane Municipal Transport,12,platform,1968,1,121
Feature,Point,72.9779878,19.2208021,bus_stop,Kapurbawdi,Thane Municipal Transport,13,platform,2842,1,121
Feature,Point,72.9781351,19.2157389,bus_stop,Ashapura Mandir,Thane Municipal Transport,14,platform,2843,1,121
Feature,Point,72.9779953,19.2143151,bus_stop,Majiwada Naka,Thane Municipal Transport,15,platform,2844,1,121
Feature,Point,72.9746018,19.2097005,bus_stop,Siddhivinayak Tower,Thane Municipal Transport,16,platform,2845,1,121
Feature,Point,72.9725179,19.207685,bus_stop,Flower Valley / Jupiter Hospital,Thane Municipal Transport,17,platform,2846,1,121
Feature,Point,72.9687136,19.204051,bus_stop,Cadbury Junction,Thane Municipal Transport,18,platform,2847,1,121
Feature,Point,72.9634124,19.1988483,bus_stop,Nitin Company,Thane Municipal Transport,19,platform,2848,1,121
Feature,Point,72.9626167,19.1956087,bus_stop,Louiswadi,Thane Municipal Transport,20,platform,2849,1,121
Feature,Point,72.962743,19.1877049,bus_stop,Teen Hath Naka,Thane Municipal Transport,21,platform,2850,1,121
Feature,Point,72.9611656,19.1866934,bus_stop,Johnson Company,Thane Municipal Transport,22,platform,2851,1,121
Feature,Point,72.9580224,19.1857279,bus_stop,Kashish Park,Thane Municipal Transport,23,platform,2852,1,121
Feature,Point,72.9543677,19.1842547,bus_stop,Mulund Check Naka,Thane Municipal Transport,24,platform,2853,1,121
Feature,Point,72.9502479,19.1833414,bus_stop,Santoshi Mata Mandir,Thane Municipal Transport,25,platform,2854,1,121
Feature,Point,72.9457084,19.1796174,bus_stop,Kamgar Hospital Mulund,Thane Municipal Transport,26,platform,2855,1,121
Feature,Point,72.9505945,19.1787395,bus_stop,Gyan Sarita Sada,Thane Municipal Transport,27,platform,2856,1,121
Feature,Point,72.9513191,19.1758264,bus_stop,Pach Rasta Devidayal Road,Thane Municipal Transport,28,platform,2857,1,121
Feature,Point,72.9580166,19.17469,bus_stop,Mulund Court / Mulund Station (W),Thane Municipal Transport,29,platform,2858,1,121
Feature,Point,72.9619358,19.1738778,bus_stop,Gavanpada,Thane Municipal Transport,30,platform,2859,1,121
Feature,Point,72.961904,19.1708011,bus_stop,Endeavour Society,Thane Municipal Transport,31,platform,2860,1,121
Feature,Point,72.9601562,19.1664543,bus_stop,Sane Guruji Chowk,Thane Municipal Transport,32,platform,2861,1,121
Feature,Point,72.9566621,19.1627347,bus_stop,Kelkar College,Thane Municipal Transport,33,platform,2862,1,121
Feature,Point,72.9580323,19.1738429,bus_stop,Mulund Station (W),Thane Municipal Transport,1,platform,2863,1,122
Feature,Point,72.9536832,19.1758641,bus_stop,Pach Rasta Devidayal Road,Thane Municipal Transport,2,platform,2864,1,122
Feature,Point,72.9505452,19.1786226,bus_stop,Gyan Sarita Sada,Thane Municipal Transport,3,platform,2865,1,122
Feature,Point,72.9452725,19.1792001,bus_stop,Kamagar Hospital Mulund,Thane Municipal Transport,4,platform,2866,1,122
Feature,Point,72.9502099,19.1835119,bus_stop,Santoshi Mata Mandir,Thane Municipal Transport,5,platform,2867,1,122
Feature,Point,72.9543262,19.1845166,bus_stop,Mulund Check Naka,Thane Municipal Transport,6,platform,2868,1,122
Feature,Point,72.9551423,19.1874053,bus_stop,Automatic Company,Thane Municipal Transport,7,platform,2869,1,122
Feature,Point,72.9552546,19.1910975,bus_stop,Passport Office / M.I.D.C,Thane Municipal Transport,8,platform,2870,1,122
Feature,Point,72.9538542,19.19339,bus_stop,Road No 16,Thane Municipal Transport,9,platform,2871,1,122
Feature,Point,72.95492833,19.196015,bus_stop,Bradma Compound,Thane Municipal Transport,10,platform,2872,1,122
Feature,Point,72.9557004,19.1976062,bus_stop,Ambika Nagar,Thane Municipal Transport,11,platform,2873,1,122
Feature,Point,72.9541783,19.1993806,bus_stop,Agriculture,Thane Municipal Transport,12,platform,2874,1,122
Feature,Point,72.9536804,19.2025606,bus_stop,Jai Bhawani Nagar,Thane Municipal Transport,13,platform,2875,1,122
Feature,Point,72.9539768,19.2035742,bus_stop,Kamgar Hospital,Thane Municipal Transport,14,platform,2876,1,122
Feature,Point,72.9541607,19.205921,bus_stop,Savarkar Nagar Naka,Thane Municipal Transport,15,platform,2877,1,122
Feature,Point,72.9546666,19.2078416,bus_stop,Yashodhan Nagar,Thane Municipal Transport,16,platform,2878,1,122
Feature,Point,72.9569319,19.2071208,bus_stop,Aai Mata Mandir Chowk,Thane Municipal Transport,17,platform,2879,1,122
Feature,Point,72.9579684,19.2079485,bus_stop,Runwal Plaza,Thane Municipal Transport,18,platform,2880,1,122
Feature,Point,72.9612842,19.2093138,bus_stop,Koras Company,Thane Municipal Transport,19,platform,2881,1,122
Feature,Point,72.9618474,19.2099527,bus_stop,Vartak Nagar Naka,Thane Municipal Transport,20,platform,2882,1,122
Feature,Point,72.9601061,19.2121316,bus_stop,Building No 3,Thane Municipal Transport,21,platform,2883,1,122
Feature,Point,72.9591395,19.2133839,bus_stop,S T Juna Thamba / Shastri Nagar,Thane Municipal Transport,22,platform,2884,1,122
Feature,Point,72.9579501,19.2147434,bus_stop,Devdaya Nagar,Thane Municipal Transport,23,platform,2885,1,122
Feature,Point,72.9586666,19.2167487,bus_stop,Cosmos Paradise,Thane Municipal Transport,24,platform,2886,1,122
Feature,Point,72.9598138,19.2194752,bus_stop,Laxmi Narayan Society,Thane Municipal Transport,25,platform,2887,1,122
Feature,Point,72.961824,19.2204127,bus_stop,Bethany Hospital,Thane Municipal Transport,26,platform,2888,1,122
Feature,Point,72.964566,19.2198566,bus_stop,Asian Cable,Thane Municipal Transport,27,platform,2889,1,122
Feature,Point,72.9698059,19.2218615,bus_stop,Vasant Vihar,Thane Municipal Transport,28,platform,2890,1,122
Feature,Point,72.9697667,19.2226363,bus_stop,Mhada Vasahat,Thane Municipal Transport,29,platform,2891,1,122
Feature,Point,72.9696791,19.2246616,bus_stop,Lok Puram,Thane Municipal Transport,30,platform,2892,1,122
Feature,Point,72.9695491,19.2279323,bus_stop,Edenwood,Thane Municipal Transport,31,platform,2893,1,122
Feature,Point,72.97007,19.229755,bus_stop,Maharashtra Nagar,Thane Municipal Transport,32,platform,2894,1,122
Feature,Point,72.9697769,19.2325896,bus_stop,Khewra Circle,Thane Municipal Transport,33,platform,2895,1,122
Feature,Point,72.9702296,19.2366209,bus_stop,Dharamvir Nagar / Happy Valley Circle,Thane Municipal Transport,34,platform,2896,1,122
Feature,Point,72.9727562,19.2364015,bus_stop,Sahayog Society,Thane Municipal Transport,35,platform,2897,1,122
Feature,Point,72.975892,19.2349977,bus_stop,Manpada,Thane Municipal Transport,36,platform,2898,1,122
Feature,Point,72.9754845,19.2390529,bus_stop,Mulla Bagh,Thane Municipal Transport,37,platform,2899,1,122
Feature,Point,72.9755656,19.2410059,bus_stop,Azad Nagar Naka,Thane Municipal Transport,38,platform,2900,1,122
Feature,Point,72.977156,19.2408148,bus_stop,St. Xaviers School,Thane Municipal Transport,39,platform,2901,1,122
Feature,Point,72.9805502,19.2394442,bus_stop,Azad Nagar,Thane Municipal Transport,40,platform,2902,1,122
Feature,Point,72.9815396,19.2413287,bus_stop,"Brahmand Phase 1,2",Thane Municipal Transport,41,platform,2903,1,122
Feature,Point,72.9827333,19.2434466,bus_stop,Swastik Park,Thane Municipal Transport,42,platform,2904,1,122
Feature,Point,72.9835657,19.2450211,bus_stop,Brahmand Phase 5,Thane Municipal Transport,43,platform,2905,1,122
Feature,Point,72.9846915,19.2466267,bus_stop,Brahmand Phase 6,Thane Municipal Transport,44,platform,2906,1,122
Feature,Point,72.9861405,19.2474907,bus_stop,Brahmand,Thane Municipal Transport,45,platform,2907,1,122
Feature,Point,72.9861408,19.2474805,bus_stop,Brahmand,Thane Municipal Transport,1,platform,2908,0,122
Feature,Point,72.9846804,19.2464828,bus_stop,Brahmand Phase 6,Thane Municipal Transport,2,platform,2909,0,122
Feature,Point,72.9835593,19.2449074,bus_stop,Brahmand Phase 5,Thane Municipal Transport,3,platform,2910,0,122
Feature,Point,72.9829323,19.2433836,bus_stop,Swastik Park,Thane Municipal Transport,4,platform,2911,0,122
Feature,Point,72.9815862,19.2411165,bus_stop,"Brahmand Phase 1,2",Thane Municipal Transport,5,platform,2912,0,122
Feature,Point,72.9806836,19.2394513,bus_stop,Azad Nagar,Thane Municipal Transport,6,platform,2913,0,122
Feature,Point,72.9774677,19.2403492,bus_stop,St. Xaviers School,Thane Municipal Transport,7,platform,2914,0,122
Feature,Point,72.9759226,19.241025,bus_stop,Azad Nagar Naka,Thane Municipal Transport,8,platform,2915,0,122
Feature,Point,72.9758021,19.2393262,bus_stop,Mulla Bagh,Thane Municipal Transport,9,platform,2916,0,122
Feature,Point,72.9762869,19.2352855,bus_stop,Manpada,Thane Municipal Transport,10,platform,2917,0,122
Feature,Point,72.9726111,19.2362979,bus_stop,Sahayog Society,Thane Municipal Transport,11,platform,2918,0,122
Feature,Point,72.9702695,19.2364877,bus_stop,Dharamvir Nagar / Happy Valley Circle,Thane Municipal Transport,12,platform,2919,0,122
Feature,Point,72.9702827,19.2320542,bus_stop,Khewra Circle,Thane Municipal Transport,13,platform,2920,0,122
Feature,Point,72.9701761,19.2302149,bus_stop,Maharashtra Nagar,Thane Municipal Transport,14,platform,2921,0,122
Feature,Point,72.9698787,19.2280438,bus_stop,Edenwood,Thane Municipal Transport,15,platform,2922,0,122
Feature,Point,72.9699377,19.2246925,bus_stop,Lok Puram,Thane Municipal Transport,16,platform,2923,0,122
Feature,Point,72.9699647,19.223438,bus_stop,Mhada Vasahat,Thane Municipal Transport,17,platform,2924,0,122
Feature,Point,72.9699831,19.2223567,bus_stop,Vasant Vihar,Thane Municipal Transport,18,platform,2925,0,122
Feature,Point,72.96448667,19.21963833,bus_stop,Asian Cable,Thane Municipal Transport,19,platform,2926,0,122
Feature,Point,72.9618354,19.2202929,bus_stop,Bethany Hospital,Thane Municipal Transport,20,platform,2927,0,122
Feature,Point,72.9599101,19.2194294,bus_stop,Laxmi Narayan Society,Thane Municipal Transport,21,platform,2928,0,122
Feature,Point,72.9587403,19.2166971,bus_stop,Cosmos Paradise,Thane Municipal Transport,22,platform,2929,0,122
Feature,Point,72.9582231,19.2149731,bus_stop,Devdaya Nagar,Thane Municipal Transport,23,platform,2930,0,122
Feature,Point,72.9591634,19.2137375,bus_stop,S T Juna Thamba / Shastri Nagar,Thane Municipal Transport,24,platform,2931,0,122
Feature,Point,72.9602479,19.2122837,bus_stop,Building No 3,Thane Municipal Transport,25,platform,2932,0,122
Feature,Point,72.9616801,19.2105331,bus_stop,Vartak Nagar Naka,Thane Municipal Transport,26,platform,2933,0,122
Feature,Point,72.9651821,19.2074122,bus_stop,Raymond,Thane Municipal Transport,27,platform,2934,0,122
Feature,Point,72.9614386,19.2092023,bus_stop,Koras Company,Thane Municipal Transport,28,platform,2935,0,122
Feature,Point,72.958746,19.2081094,bus_stop,Runwal Plaza,Thane Municipal Transport,29,platform,2936,0,122
Feature,Point,72.956933,19.2070122,bus_stop,Aai Mata Mandir Chowk,Thane Municipal Transport,30,platform,2937,0,122
Feature,Point,72.9546477,19.2075187,bus_stop,Yashodhan Nagar,Thane Municipal Transport,31,platform,2938,0,122
Feature,Point,72.9542433,19.2060017,bus_stop,Savarkar Nagar Naka,Thane Municipal Transport,32,platform,2939,0,122
Feature,Point,72.9541211,19.203652,bus_stop,Kamgar Hospital,Thane Municipal Transport,33,platform,2940,0,122
Feature,Point,72.9537352,19.2020494,bus_stop,Jai Bhawani Nagar,Thane Municipal Transport,34,platform,2941,0,122
Feature,Point,72.9539812,19.2000848,bus_stop,Agriculture,Thane Municipal Transport,35,platform,2942,0,122
Feature,Point,72.955657,19.1977629,bus_stop,Ambika Nagar,Thane Municipal Transport,36,platform,2943,0,122
Feature,Point,72.95495,19.196045,bus_stop,Bradma Compound,Thane Municipal Transport,37,platform,2944,0,122
Feature,Point,72.9537708,19.1937057,bus_stop,Road No 16,Thane Municipal Transport,38,platform,2945,0,122
Feature,Point,72.9552294,19.1921298,bus_stop,Passport Office / M.I.D.C,Thane Municipal Transport,39,platform,2946,0,122
Feature,Point,72.9553824,19.1877051,bus_stop,Automatic Company,Thane Municipal Transport,40,platform,2947,0,122
Feature,Point,72.9543677,19.1842657,bus_stop,Mulund Check Naka,Thane Municipal Transport,41,platform,2948,0,122
Feature,Point,72.9502481,19.1833408,bus_stop,Santoshi Mata Mandir,Thane Municipal Transport,42,platform,2949,0,122
Feature,Point,72.9457084,19.1796176,bus_stop,Kamagar Hospital Mulund,Thane Municipal Transport,43,platform,2950,0,122
Feature,Point,72.9505945,19.1787363,bus_stop,Gyan Sarita Sada,Thane Municipal Transport,44,platform,2951,0,122
Feature,Point,72.9527886,19.1754771,bus_stop,Pach Rasta Devidayal Road,Thane Municipal Transport,45,platform,2952,0,122
Feature,Point,72.9571025,19.1737125,bus_stop,Mulund Station (W),Thane Municipal Transport,46,platform,2953,0,122
Feature,Point,72.9802714,19.2030351,bus_stop,Rabodi,Thane Municipal Transport,1,platform,2954,0,2
Feature,Point,72.97911167,19.203085,bus_stop,Holly Cross School,Thane Municipal Transport,2,platform,2955,0,2
Feature,Point,72.9795594,19.2011588,bus_stop,Police Line,Thane Municipal Transport,3,platform,2956,0,2
Feature,Point,72.9799706,19.1979209,bus_stop,Central Maidan,Thane Municipal Transport,4,platform,2957,0,2
Feature,Point,72.9785266,19.1970384,bus_stop,Court Naka,Thane Municipal Transport,5,platform,2958,0,2
Feature,Point,72.977899,19.1946211,bus_stop,Jambhali Naka,Thane Municipal Transport,6,platform,2959,0,2
Feature,Point,72.9769159,19.1905211,bus_stop,Prabhat Cinema,Thane Municipal Transport,7,platform,2960,0,2
Feature,Point,72.977211,19.1871376,bus_stop,Thane Station West SATIS,Thane Municipal Transport,8,platform,2961,0,2
Feature,Point,72.9772101,19.1871381,bus_stop,Thane Station West SATIS,Thane Municipal Transport,1,platform,2962,1,2
Feature,Point,72.97677,19.19367333,bus_stop,Jambli Naka,Thane Municipal Transport,2,platform,2963,1,2
Feature,Point,72.9772351,19.1970953,bus_stop,Court Naka,Thane Municipal Transport,3,platform,2964,1,2
Feature,Point,72.9788244,19.1990731,bus_stop,Civil Hospital,Thane Municipal Transport,4,platform,2965,1,2
Feature,Point,72.979297,19.2012517,bus_stop,Police Line,Thane Municipal Transport,5,platform,2966,1,2
Feature,Point,72.97871,19.2034259,bus_stop,Holly Cross School,Thane Municipal Transport,6,platform,2967,1,2
Feature,Point,72.9799637,19.2030599,bus_stop,Rabodi,Thane Municipal Transport,7,platform,2968,1,2
Feature,Point,72.9772102,19.1871398,bus_stop,Thane Station West SATIS,Thane Municipal Transport,1,platform,2969,1,39
Feature,Point,72.97679833,19.19384,bus_stop,Jambhali Naka,Thane Municipal Transport,2,platform,2970,1,39
Feature,Point,72.9772441,19.1971029,bus_stop,Tembhi Naka / Court Naka,Thane Municipal Transport,3,platform,2971,1,39
Feature,Point,72.9788238,19.1990642,bus_stop,Civil Hospital,Thane Municipal Transport,4,platform,2972,1,39
Feature,Point,72.9812883,19.1990638,bus_stop,R. T. O/Central Jail,Thane Municipal Transport,5,platform,2973,1,39
Feature,Point,72.9832111,19.1973637,bus_stop,Kanhaji Agrh Chowk,Thane Municipal Transport,6,platform,2974,1,39
Feature,Point,72.9875946,19.1963977,bus_stop,Kalwa Naka,Thane Municipal Transport,7,platform,2975,1,39
Feature,Point,72.9907908,19.1968564,bus_stop,Manisha Nagar,Thane Municipal Transport,8,platform,2976,1,39
Feature,Point,72.9938115,19.1980716,bus_stop,Sahyadri Society,Thane Municipal Transport,9,platform,2977,1,39
Feature,Point,72.9953152,19.1988307,bus_stop,Sukur Park,Thane Municipal Transport,10,platform,2978,1,39
Feature,Point,72.9986338,19.2004788,bus_stop,Datta Wadi,Thane Municipal Transport,11,platform,2979,1,39
Feature,Point,73.0013565,19.2018155,bus_stop,Kharegaon Naka,Thane Municipal Transport,12,platform,2980,1,39
Feature,Point,73.0059061,19.2036408,bus_stop,Prem Nagar,Thane Municipal Transport,13,platform,2981,1,39
Feature,Point,73.0070206,19.204912,bus_stop,Raj Park,Thane Municipal Transport,14,platform,2982,1,39
Feature,Point,73.00849833,19.20591833,bus_stop,Vimal Nagar,Thane Municipal Transport,15,platform,2983,1,39
Feature,Point,73.0097655,19.2067076,bus_stop,Vastu Anand,Thane Municipal Transport,16,platform,2984,1,39
Feature,Point,73.01139167,19.20787333,bus_stop,Subhash Tower,Thane Municipal Transport,17,platform,2985,1,39
Feature,Point,73.009865,19.20932667,bus_stop,Nandanwan Homes,Thane Municipal Transport,18,platform,2986,1,39
Feature,Point,73.00626167,19.20706167,bus_stop,Raghukul Society,Thane Municipal Transport,19,platform,2987,1,39
Feature,Point,73.0059517,19.2070136,bus_stop,Raghukul Society,Thane Municipal Transport,1,platform,2988,0,39
Feature,Point,73.00984,19.20946667,bus_stop,Nadanawan Homes,Thane Municipal Transport,2,platform,2989,0,39
Feature,Point,73.0115,19.20773167,bus_stop,Reliance Market,Thane Municipal Transport,3,platform,2990,0,39
Feature,Point,73.0097326,19.20646,bus_stop,Vastu Anand,Thane Municipal Transport,4,platform,2991,0,39
Feature,Point,73.008475,19.20565167,bus_stop,Vimal Nagar,Thane Municipal Transport,5,platform,2992,0,39
Feature,Point,73.007235,19.204875,bus_stop,Vilas Park,Thane Municipal Transport,6,platform,2993,0,39
Feature,Point,73.0046332,19.2029892,bus_stop,Prem Nagar,Thane Municipal Transport,7,platform,2994,0,39
Feature,Point,73.0016863,19.2018256,bus_stop,Kharegaon Naka,Thane Municipal Transport,8,platform,2995,0,39
Feature,Point,72.9990829,19.2004888,bus_stop,Datta Wadi,Thane Municipal Transport,9,platform,2996,0,39
Feature,Point,72.9953519,19.1986811,bus_stop,Sukur Park,Thane Municipal Transport,10,platform,2997,0,39
Feature,Point,72.9935886,19.197759,bus_stop,Sahyadri Society,Thane Municipal Transport,11,platform,2998,0,39
Feature,Point,72.9917217,19.1969826,bus_stop,Manisha Nagar,Thane Municipal Transport,12,platform,2999,0,39
Feature,Point,72.9874179,19.1958367,bus_stop,Kalwa Naka,Thane Municipal Transport,13,platform,3000,0,39
Feature,Point,72.983121,19.1971801,bus_stop,Kanhaji Agrh Chowk,Thane Municipal Transport,14,platform,3001,0,39
Feature,Point,72.9812304,19.1988958,bus_stop,R. T. O/ Central Jail,Thane Municipal Transport,15,platform,3002,0,39
Feature,Point,72.9799703,19.1979213,bus_stop,Central Maidan,Thane Municipal Transport,16,platform,3003,0,39
Feature,Point,72.9785383,19.1970288,bus_stop,Court Naka,Thane Municipal Transport,17,platform,3004,0,39
Feature,Point,72.977898,19.1946199,bus_stop,Jambhali Naka,Thane Municipal Transport,18,platform,3005,0,39
Feature,Point,72.9769159,19.1905214,bus_stop,Prabhat Cinema,Thane Municipal Transport,19,platform,3006,0,39
Feature,Point,72.9772116,19.1871386,bus_stop,Thane Station West SATIS,Thane Municipal Transport,20,platform,3007,0,39
Feature,Point,72.943148,19.240277,bus_stop,Yeoor / Patonapada,Thane Municipal Transport,1,platform,246,0,16
Feature,Point,72.9447381,19.2363925,bus_stop,Bhendi Pada,Thane Municipal Transport,2,platform,247,0,16
Feature,Point,72.945063,19.2352434,bus_stop,Ram Mandir,Thane Municipal Transport,3,platform,248,0,16
Feature,Point,72.94794,19.231872,bus_stop,Exotica,Thane Municipal Transport,4,platform,249,0,16
Feature,Point,72.948227,19.229283,bus_stop,Yeoor Gaon,Thane Municipal Transport,5,platform,250,0,16
Feature,Point,72.949555,19.224562,bus_stop,Air Force Station,Thane Municipal Transport,6,platform,251,0,16
Feature,Point,72.9527465,19.2187675,bus_stop,Bhu Kendra,Thane Municipal Transport,7,platform,252,0,16
Feature,Point,72.95492,19.216722,bus_stop,Khandelwal,Thane Municipal Transport,8,platform,253,0,16
Feature,Point,72.956282,19.2159,bus_stop,Shivai Nagar,Thane Municipal Transport,9,platform,254,0,16
Feature,Point,72.957715,19.215128,bus_stop,Devdaya Nagar,Thane Municipal Transport,10,platform,255,0,16
Feature,Point,72.9592531,19.2135649,bus_stop,S T Juna Thamba / Shastri Nagar,Thane Municipal Transport,11,platform,256,0,16
Feature,Point,72.9603694,19.2121189,bus_stop,Building No 3,Thane Municipal Transport,12,platform,257,0,16
Feature,Point,72.96162,19.210507,bus_stop,Vartak Nagar,Thane Municipal Transport,13,platform,258,0,16
Feature,Point,72.965137,19.20741,bus_stop,J K Gram,Thane Municipal Transport,14,platform,259,0,16
Feature,Point,72.967208,19.205613,bus_stop,Cadbury Company,Thane Municipal Transport,15,platform,260,0,16
Feature,Point,72.969655,19.204303,bus_stop,Pujani Estate,Thane Municipal Transport,16,platform,261,0,16
Feature,Point,72.971747,19.203472,bus_stop,Khopat,Thane Municipal Transport,17,platform,262,0,16
Feature,Point,72.9754838,19.200791,bus_stop,New Shakti Mill / Ambedkar Road,Thane Municipal Transport,18,platform,263,0,16
Feature,Point,72.978257,19.199128,bus_stop,Civil Hospital,Thane Municipal Transport,19,platform,264,0,16
Feature,Point,72.979943,19.197915,bus_stop,Central Maidan,Thane Municipal Transport,20,platform,265,0,16
Feature,Point,72.978453,19.197013,bus_stop,Court Naka,Thane Municipal Transport,21,platform,266,0,16
Feature,Point,72.977905,19.194513,bus_stop,Jambhali Naka,Thane Municipal Transport,22,platform,267,0,16
Feature,Point,72.976957,19.19075,bus_stop,Prabhat Cinema,Thane Municipal Transport,23,platform,268,0,16
Feature,Point,72.976106,19.186713,bus_stop,Thane Station West SATIS,Thane Municipal Transport,24,platform,269,0,16
Feature,Point,72.9798203,19.1878495,bus_stop,Chendani Koliwada (CIDCO),Thane Municipal Transport,1,platform,3008,1,46
Feature,Point,72.9805373,19.1915526,bus_stop,Dadoji Konddev Stadium,Thane Municipal Transport,2,platform,3009,1,46
Feature,Point,72.9831192,19.1971803,bus_stop,Kanhaji Agrh Chowk,Thane Municipal Transport,3,platform,3010,1,46
Feature,Point,72.9854446,19.2027537,bus_stop,Rabodi,Thane Municipal Transport,4,platform,3011,1,46
Feature,Point,72.9920346,19.2062078,bus_stop,Saket Complex,Thane Municipal Transport,5,platform,3012,1,46
Feature,Point,72.9908142,19.2165346,bus_stop,Balkum Pada No 3,Thane Municipal Transport,6,platform,3013,1,46
Feature,Point,72.9898356,19.2200382,bus_stop,Balkum Pada No 2,Thane Municipal Transport,7,platform,3014,1,46
Feature,Point,72.9895826,19.2214947,bus_stop,Balkum Naka,Thane Municipal Transport,8,platform,3015,1,46
Feature,Point,72.9998902,19.2276878,bus_stop,Datta Mandir,Thane Municipal Transport,9,platform,3016,1,46
Feature,Point,73.0086304,19.2323802,bus_stop,Chamunda,Thane Municipal Transport,10,platform,3017,1,46
Feature,Point,73.0130305,19.2350598,bus_stop,Kasheli Toll Naka,Thane Municipal Transport,11,platform,3018,1,46
Feature,Point,73.0147329,19.2362347,bus_stop,Kasheli,Thane Municipal Transport,12,platform,3019,1,46
Feature,Point,73.0160217,19.2388295,bus_stop,Durgesh Complex,Thane Municipal Transport,13,platform,3020,1,46
Feature,Point,73.0167002,19.2415894,bus_stop,Hanuman Complex,Thane Municipal Transport,14,platform,3021,1,46
Feature,Point,73.0173509,19.2441567,bus_stop,Durgesh Park,Thane Municipal Transport,15,platform,3022,1,46
Feature,Point,73.0177528,19.2481512,bus_stop,Kalher,Thane Municipal Transport,16,platform,3023,1,46
Feature,Point,73.0180152,19.2513182,bus_stop,Kalher Pipe Line,Thane Municipal Transport,17,platform,3024,1,46
Feature,Point,73.0211673,19.252695,bus_stop,Kopar,Thane Municipal Transport,18,platform,3025,1,46
Feature,Point,73.0264118,19.258259,bus_stop,Purna,Thane Municipal Transport,19,platform,3026,1,46
Feature,Point,73.026625,19.2582329,bus_stop,Purna,Thane Municipal Transport,1,platform,3028,0,46
Feature,Point,73.0216492,19.2527108,bus_stop,Kopar,Thane Municipal Transport,2,platform,3029,0,46
Feature,Point,73.0181046,19.25116,bus_stop,Kalher Pipe Line,Thane Municipal Transport,3,platform,3030,0,46
Feature,Point,73.0179066,19.2481471,bus_stop,Kalher,Thane Municipal Transport,4,platform,3031,0,46
Feature,Point,73.0173623,19.2434545,bus_stop,Durgesh Park,Thane Municipal Transport,5,platform,3032,0,46
Feature,Point,73.0167754,19.2414399,bus_stop,Hanuman Complex,Thane Municipal Transport,6,platform,3033,0,46
Feature,Point,73.0162466,19.2387761,bus_stop,Durgesh Complex,Thane Municipal Transport,7,platform,3034,0,46
Feature,Point,73.015262,19.2364253,bus_stop,Kasheli,Thane Municipal Transport,8,platform,3035,0,46
Feature,Point,73.0127003,19.2345521,bus_stop,Kasheli Toll Naka,Thane Municipal Transport,9,platform,3036,0,46
Feature,Point,73.0090177,19.232288,bus_stop,Chamunda,Thane Municipal Transport,10,platform,3037,0,46
Feature,Point,73.0002161,19.2268098,bus_stop,Datta Mandir,Thane Municipal Transport,11,platform,3038,0,46
Feature,Point,72.9897587,19.2213428,bus_stop,Balkum Naka,Thane Municipal Transport,12,platform,3039,0,46
Feature,Point,72.9898394,19.2201495,bus_stop,Balkum Pada No 2,Thane Municipal Transport,13,platform,3040,0,46
Feature,Point,72.9908512,19.2167826,bus_stop,Balkum Pada No 3,Thane Municipal Transport,14,platform,3041,0,46
Feature,Point,72.9924348,19.2064711,bus_stop,Saket Complex,Thane Municipal Transport,15,platform,3042,0,46
Feature,Point,72.9854076,19.2027955,bus_stop,Rabodi,Thane Municipal Transport,16,platform,3043,0,46
Feature,Point,72.9832116,19.1973639,bus_stop,Kanhaji Agrh Chowk,Thane Municipal Transport,17,platform,3044,0,46
Feature,Point,72.9831216,19.1951547,bus_stop,Mahagiri Koliwada,Thane Municipal Transport,18,platform,3045,0,46
Feature,Point,72.9808039,19.1919434,bus_stop,Dadoji Konddev Stadium,Thane Municipal Transport,19,platform,3046,0,46
Feature,Point,72.9798192,19.1878501,bus_stop,Chendani Koliwada (CIDCO),Thane Municipal Transport,20,platform,3047,0,46
Feature,Point,72.9873865,19.2225681,bus_stop,Runwal Garden City,Thane Municipal Transport,1,platform,3048,0,92
Feature,Point,72.9823964,19.2222343,bus_stop,Highland Park,Thane Municipal Transport,2,platform,3049,0,92
Feature,Point,72.9835614,19.218302,bus_stop,Yashaswi Nagar,Thane Municipal Transport,3,platform,3050,0,92
Feature,Point,72.9809722,19.2176993,bus_stop,Chhabhaiya Park,Thane Municipal Transport,4,platform,3051,0,92
Feature,Point,72.9798877,19.2175435,bus_stop,Kapurbavdi,Thane Municipal Transport,5,platform,3052,0,92
Feature,Point,72.9781355,19.2157377,bus_stop,Ashapura Mandir,Thane Municipal Transport,6,platform,3053,0,92
Feature,Point,72.9779958,19.2143155,bus_stop,Majiwada Naka,Thane Municipal Transport,7,platform,3054,0,92
Feature,Point,72.9772729,19.2105727,bus_stop,Muktai Nagar,Thane Municipal Transport,8,platform,3055,0,92
Feature,Point,72.9771339,19.2088858,bus_stop,Gokul Nagar,Thane Municipal Transport,9,platform,3056,0,92
Feature,Point,72.9774938,19.207109,bus_stop,Castel Mil,Thane Municipal Transport,10,platform,3057,0,92
Feature,Point,72.978959,19.2034298,bus_stop,Holy Cross School,Thane Municipal Transport,11,platform,3058,0,92
Feature,Point,72.9795594,19.2011577,bus_stop,Police Line,Thane Municipal Transport,12,platform,3059,0,92
Feature,Point,72.9799708,19.1979213,bus_stop,Central Maidan,Thane Municipal Transport,13,platform,3060,0,92
Feature,Point,72.9785369,19.1970467,bus_stop,Court Naka,Thane Municipal Transport,14,platform,3061,0,92
Feature,Point,72.9778989,19.1946183,bus_stop,Jambhali Naka,Thane Municipal Transport,15,platform,3062,0,92
Feature,Point,72.9769172,19.1905226,bus_stop,Prabhat Cinema,Thane Municipal Transport,16,platform,3063,0,92
Feature,Point,72.977212,19.1871399,bus_stop,Thane Station West SATIS,Thane Municipal Transport,17,platform,3064,0,92
Feature,Point,72.9772109,19.1871394,bus_stop,Thane Station West SATIS,Thane Municipal Transport,1,platform,3065,1,92
Feature,Point,72.9767115,19.1937989,bus_stop,Talao Pali,Thane Municipal Transport,2,platform,3066,1,92
Feature,Point,72.97726382,19.19700336,bus_stop,Jambhali Naka,Thane Municipal Transport,3,platform,3067,1,92
Feature,Point,72.9789623,19.1989377,bus_stop,Civil Hospital,Thane Municipal Transport,4,platform,3068,1,92
Feature,Point,72.9792981,19.2012512,bus_stop,Police Line,Thane Municipal Transport,5,platform,3069,1,92
Feature,Point,72.9771865,19.2073077,bus_stop,Castle Mill,Thane Municipal Transport,6,platform,3070,1,92
Feature,Point,72.9770194,19.2093521,bus_stop,Gokul Nagar,Thane Municipal Transport,7,platform,3071,1,92
Feature,Point,72.977121,19.2108312,bus_stop,Muktai Nagar,Thane Municipal Transport,8,platform,3072,1,92
Feature,Point,72.9773369,19.2144867,bus_stop,Majiwada,Thane Municipal Transport,9,platform,3073,1,92
Feature,Point,72.9777816,19.2162553,bus_stop,Ashapura Mandir,Thane Municipal Transport,10,platform,3074,1,92
Feature,Point,72.9799645,19.2178563,bus_stop,Kapurbavdi,Thane Municipal Transport,11,platform,3075,1,92
Feature,Point,72.98186609,19.21818345,bus_stop,Chhabhaiya Park,Thane Municipal Transport,12,platform,3076,1,92
Feature,Point,72.9833994,19.2185279,bus_stop,Yashaswi Nagar,Thane Municipal Transport,13,platform,3077,1,92
Feature,Point,72.9822386,19.2222875,bus_stop,Highland Park,Thane Municipal Transport,14,platform,3078,1,92
Feature,Point,72.9881211,19.2230488,bus_stop,Runwal Garden City,Thane Municipal Transport,15,platform,3079,1,92
Feature,Point,72.9599848,19.2624347,bus_stop,Havre City / Borivade Gaon,Thane Municipal Transport,1,platform,3080,0,61
Feature,Point,72.96023167,19.26209333,bus_stop,Monalisa Lawns,Thane Municipal Transport,2,platform,3081,0,61
Feature,Point,72.96626667,19.26331667,bus_stop,Parkwood Society,Thane Municipal Transport,3,platform,3082,0,61
Feature,Point,72.9685125,19.262872,bus_stop,Muchhala College,Thane Municipal Transport,4,platform,3083,0,61
Feature,Point,72.9699298,19.2594203,bus_stop,Batata Company / Vijay Garden / Dmart,Thane Municipal Transport,5,platform,3084,0,61
Feature,Point,72.9708579,19.2572809,bus_stop,Panchamrit,Thane Municipal Transport,6,platform,3085,0,61
Feature,Point,72.972555,19.252905,bus_stop,Wagh Bill Naka,Thane Municipal Transport,7,platform,3086,0,61
Feature,Point,72.9733899,19.2510269,bus_stop,Dongri Pada,Thane Municipal Transport,8,platform,3087,0,61
Feature,Point,72.9759777,19.2461192,bus_stop,Patli Pada,Thane Municipal Transport,9,platform,3088,0,61
Feature,Point,72.9758801,19.2411104,bus_stop,Azad Nagar Naka,Thane Municipal Transport,10,platform,3089,0,61
Feature,Point,72.9758025,19.2393265,bus_stop,Mulla Bagh,Thane Municipal Transport,11,platform,3090,0,61
Feature,Point,72.9762871,19.2352855,bus_stop,Manpada,Thane Municipal Transport,12,platform,3091,0,61
Feature,Point,72.9768604,19.2301962,bus_stop,Lockim / R Mall,Thane Municipal Transport,13,platform,3092,0,61
Feature,Point,72.9776172,19.2239241,bus_stop,Tattvagyan Vidyapeeth,Thane Municipal Transport,14,platform,3093,0,61
Feature,Point,72.9779874,19.2208015,bus_stop,Kapurbavdi,Thane Municipal Transport,15,platform,3094,0,61
Feature,Point,72.9781362,19.2157378,bus_stop,Ashapura Mandir,Thane Municipal Transport,16,platform,3095,0,61
Feature,Point,72.9779958,19.2143155,bus_stop,Majiwada Naka,Thane Municipal Transport,17,platform,3054,0,61
Feature,Point,72.9772734,19.2105727,bus_stop,Muktai Nagar,Thane Municipal Transport,18,platform,3096,0,61
Feature,Point,72.9771346,19.2088854,bus_stop,Gokul Nagar,Thane Municipal Transport,19,platform,3097,0,61
Feature,Point,72.9774939,19.2071093,bus_stop,Ambika Yoga Kutir,Thane Municipal Transport,20,platform,3098,0,61
Feature,Point,72.9781874,19.2046682,bus_stop,Abhiruchi / Holly Cross School,Thane Municipal Transport,21,platform,3099,0,61
Feature,Point,72.9795599,19.2011578,bus_stop,Police Line,Thane Municipal Transport,22,platform,3100,0,61
Feature,Point,72.9799705,19.1979207,bus_stop,Central Maidan,Thane Municipal Transport,23,platform,3101,0,61
Feature,Point,72.9785381,19.1970472,bus_stop,Court Naka,Thane Municipal Transport,24,platform,3102,0,61
Feature,Point,72.9778978,19.1946193,bus_stop,Jambhali Naka,Thane Municipal Transport,25,platform,3103,0,61
Feature,Point,72.9769159,19.1905197,bus_stop,Prabhat Cinema,Thane Municipal Transport,26,platform,3104,0,61
Feature,Point,72.9772093,19.1871379,bus_stop,Thane Station West SATIS,Thane Municipal Transport,27,platform,3105,0,61
Feature,Point,72.9772113,19.1871369,bus_stop,Thane Station West SATIS,Thane Municipal Transport,1,platform,3106,1,61
Feature,Point,72.9767118,19.1937991,bus_stop,Talao Pali / Jambhali Naka,Thane Municipal Transport,2,platform,3107,1,61
Feature,Point,72.9772442,19.1971039,bus_stop,Tembhi Naka / Court Naka,Thane Municipal Transport,3,platform,3108,1,61
Feature,Point,72.978824,19.1990731,bus_stop,Civil Hospital,Thane Municipal Transport,4,platform,3109,1,61
Feature,Point,72.9792972,19.201252,bus_stop,Police Line,Thane Municipal Transport,5,platform,3110,1,61
Feature,Point,72.97871,19.2034255,bus_stop,Holly Cross School,Thane Municipal Transport,6,platform,3111,1,61
Feature,Point,72.9771862,19.2073079,bus_stop,Castle Mill,Thane Municipal Transport,7,platform,3112,1,61
Feature,Point,72.9770195,19.2093528,bus_stop,Gokul Nagar,Thane Municipal Transport,8,platform,3113,1,61
Feature,Point,72.9771027,19.2108313,bus_stop,Muktai Nagar,Thane Municipal Transport,9,platform,3114,1,61
Feature,Point,72.9773374,19.2144875,bus_stop,Majiwada Naka,Thane Municipal Transport,10,platform,3115,1,61
Feature,Point,72.9777806,19.2162562,bus_stop,Ashapura Mandir,Thane Municipal Transport,11,platform,3116,1,61
Feature,Point,72.9775213,19.2210927,bus_stop,Kapurbawdi,Thane Municipal Transport,12,platform,3117,1,61
Feature,Point,72.9773095,19.2234482,bus_stop,Tattvagyan Vidyapeeth,Thane Municipal Transport,13,platform,3118,1,61
Feature,Point,72.9765496,19.2298505,bus_stop,Lokim Company / R Mall,Thane Municipal Transport,14,platform,3119,1,61
Feature,Point,72.9758917,19.2349982,bus_stop,Manpada,Thane Municipal Transport,15,platform,3120,1,61
Feature,Point,72.9754835,19.239052,bus_stop,Mulla Bagh,Thane Municipal Transport,16,platform,3121,1,61
Feature,Point,72.9755762,19.2410327,bus_stop,Azad Nagar Naka,Thane Municipal Transport,17,platform,3122,1,61
Feature,Point,72.9752869,19.2473512,bus_stop,Patli Pada,Thane Municipal Transport,18,platform,3123,1,61
Feature,Point,72.973416,19.2505138,bus_stop,Dongri Pada,Thane Municipal Transport,19,platform,3124,1,61
Feature,Point,72.9722584,19.252732,bus_stop,Wagh Bill Naka,Thane Municipal Transport,20,platform,3125,1,61
Feature,Point,72.9704788,19.2571155,bus_stop,Panchamrit,Thane Municipal Transport,21,platform,3126,1,61
Feature,Point,72.9691728,19.2604289,bus_stop,Batata Company / Vijay Garden,Thane Municipal Transport,22,platform,3127,1,61
Feature,Point,72.9682512,19.2627948,bus_stop,Muchhala College,Thane Municipal Transport,23,platform,3128,1,61
Feature,Point,72.96547667,19.262215,bus_stop,Parkwood Society,Thane Municipal Transport,24,platform,3129,1,61
Feature,Point,72.9598,19.26169667,bus_stop,Monalisa Lawns,Thane Municipal Transport,25,platform,3130,1,61
Feature,Point,72.9599772,19.2624355,bus_stop,Hawre City / Boriwade Gaon,Thane Municipal Transport,26,platform,3131,1,61
Feature,Point,72.976638,19.18503,bus_stop,Thane Station (East) Kopri,Thane Municipal Transport,1,platform,3132,1,111
Feature,Point,72.9724102,19.1845228,bus_stop,Gaondevi Mandir Kopri,Thane Municipal Transport,2,platform,3133,1,111
Feature,Point,72.9707458,19.1824244,bus_stop,Siddharth Nagar Shashkiya Niwas,Thane Municipal Transport,3,platform,3134,1,111
Feature,Point,72.9677477,19.1816112,bus_stop,Swami Vivekanand Chowk,Thane Municipal Transport,4,platform,3135,1,111
Feature,Point,72.9647173,19.1845358,bus_stop,Gynan Sadhana College,Thane Municipal Transport,5,platform,3136,1,111
Feature,Point,72.963185,19.1893679,bus_stop,Teen Hath Naka,Thane Municipal Transport,6,platform,3137,1,111
Feature,Point,72.9627439,19.1877118,bus_stop,Teen Hat Naka,Thane Municipal Transport,7,platform,3138,1,111
Feature,Point,72.9611671,19.1866965,bus_stop,Johnson Company,Thane Municipal Transport,8,platform,3139,1,111
Feature,Point,72.9580234,19.1857384,bus_stop,Kashish Park,Thane Municipal Transport,9,platform,3140,1,111
Feature,Point,72.9565979,19.18554,bus_stop,Mulund Check Naka,Thane Municipal Transport,10,platform,3141,1,111
Feature,Point,72.9551494,19.1874052,bus_stop,Automatic Company,Thane Municipal Transport,11,platform,3142,1,111
Feature,Point,72.9552524,19.191099,bus_stop,M. I. D. C,Thane Municipal Transport,12,platform,3143,1,111
Feature,Point,72.9538706,19.1933766,bus_stop,Road No 16,Thane Municipal Transport,13,platform,3144,1,111
Feature,Point,72.95167,19.1943374,bus_stop,Durdwani Kendra,Thane Municipal Transport,14,platform,3145,1,111
Feature,Point,72.9495764,19.194549,bus_stop,Wagle Circle,Thane Municipal Transport,15,platform,3146,1,111
Feature,Point,72.945314,19.1950918,bus_stop,Ravi Fisheries,Thane Municipal Transport,16,platform,3147,1,111
Feature,Point,72.9431335,19.1953687,bus_stop,ITI Circle,Thane Municipal Transport,17,platform,3148,1,111
Feature,Point,72.9490625,19.1977002,bus_stop,Tata Motors,Thane Municipal Transport,18,platform,3149,1,111
Feature,Point,72.9490342,19.2006885,bus_stop,Sathe Nagar,Thane Municipal Transport,19,platform,3150,1,111
Feature,Point,72.9458275,19.2016543,bus_stop,Wagle Bus Depot,Thane Municipal Transport,20,platform,3151,1,111
Feature,Point,72.945827,19.201697,bus_stop,Wagle Bus Depot,Thane Municipal Transport,1,platform,3152,0,111
Feature,Point,72.9491833,19.2007718,bus_stop,Sathe Nagar,Thane Municipal Transport,2,platform,3153,0,111
Feature,Point,72.9492513,19.1977314,bus_stop,Tata Motors,Thane Municipal Transport,3,platform,3154,0,111
Feature,Point,72.9430927,19.195526,bus_stop,ITI Circle,Thane Municipal Transport,4,platform,3155,0,111
Feature,Point,72.945341,19.1952385,bus_stop,Ravi Fisheries,Thane Municipal Transport,5,platform,3156,0,111
Feature,Point,72.9497662,19.194721,bus_stop,Wagle Circle,Thane Municipal Transport,6,platform,3157,0,111
Feature,Point,72.9516942,19.1944601,bus_stop,Durdwani Kendra,Thane Municipal Transport,7,platform,3158,0,111
Feature,Point,72.9537729,19.1936998,bus_stop,Road No 16,Thane Municipal Transport,8,platform,3159,0,111
Feature,Point,72.9552254,19.1921299,bus_stop,Passport Office,Thane Municipal Transport,9,platform,3160,0,111
Feature,Point,72.9554359,19.1911647,bus_stop,M. I. D. C,Thane Municipal Transport,10,platform,3161,0,111
Feature,Point,72.955379,19.1877067,bus_stop,Automatic Company,Thane Municipal Transport,11,platform,3162,0,111
Feature,Point,72.9566817,19.1858331,bus_stop,Mulund Check Naka (Narpoli),Thane Municipal Transport,12,platform,3163,0,111
Feature,Point,72.9581612,19.1859803,bus_stop,Kashish Park,Thane Municipal Transport,13,platform,3164,0,111
Feature,Point,72.96108,19.1869189,bus_stop,Johnson Company,Thane Municipal Transport,14,platform,3165,0,111
Feature,Point,72.9625635,19.1879347,bus_stop,Teen Hath Naka,Thane Municipal Transport,15,platform,3166,0,111
Feature,Point,72.9640809,19.1876349,bus_stop,Teen Hath Naka,Thane Municipal Transport,16,platform,3167,0,111
Feature,Point,72.9652607,19.1842671,bus_stop,Gynan Sadhana College,Thane Municipal Transport,17,platform,3168,0,111
Feature,Point,72.9675709,19.1817776,bus_stop,Swami Vivekanand Chowk,Thane Municipal Transport,18,platform,3169,0,111
Feature,Point,72.9704815,19.1825251,bus_stop,Siddharth Nagar Shashkiya Niwas,Thane Municipal Transport,19,platform,3170,0,111
Feature,Point,72.9723407,19.1846316,bus_stop,Gaondevi Mandir Kopri,Thane Municipal Transport,20,platform,3171,0,111
Feature,Point,72.976542,19.18503,bus_stop,Thane Station (East) Kopri,Thane Municipal Transport,21,platform,3172,0,111
Feature,Point,72.998855,19.19635333,bus_stop,Kalwa Railway Station,Thane Municipal Transport,1,platform,3173,1,82
Feature,Point,73.0038331,19.2005304,bus_stop,Kharegaon Fatak,Thane Municipal Transport,2,platform,3174,1,82
Feature,Point,73.00520167,19.20189667,bus_stop,Anand Vihar,Thane Municipal Transport,3,platform,3175,1,82
Feature,Point,73.007015,19.20329667,bus_stop,Indira Nagar,Thane Municipal Transport,4,platform,3176,1,82
Feature,Point,73.0095623,19.2042289,bus_stop,Rameshwar Society,Thane Municipal Transport,5,platform,3177,1,82
Feature,Point,73.01288167,19.20434167,bus_stop,Gholai Nagar,Thane Municipal Transport,6,platform,3178,1,82
Feature,Point,73.01176833,19.204125,bus_stop,Gholai Nagar,Thane Municipal Transport,1,platform,3179,0,82
Feature,Point,73.00968,19.20422167,bus_stop,Rameshwar Society,Thane Municipal Transport,2,platform,3180,0,82
Feature,Point,73.007225,19.203375,bus_stop,Indira Nagar,Thane Municipal Transport,3,platform,3181,0,82
Feature,Point,73.00524167,19.20189333,bus_stop,Anand Vihar,Thane Municipal Transport,4,platform,3182,0,82
Feature,Point,73.0038738,19.2006383,bus_stop,Kharegaon Fatak,Thane Municipal Transport,5,platform,3183,0,82
Feature,Point,72.998855,19.19635333,bus_stop,Kalwa Railway Station,Thane Municipal Transport,6,platform,3173,0,82
Feature,Point,72.94936,19.19286,bus_stop,Kisan Nagar,Thane Municipal Transport,1,platform,270,1,43
Feature,Point,72.9497662,19.1947236,bus_stop,Wagle Circle,Thane Municipal Transport,2,platform,271,1,43
Feature,Point,72.9536516,19.1937682,bus_stop,Road No 16,Thane Municipal Transport,3,platform,272,1,43
Feature,Point,72.9554066,19.1911617,bus_stop,M.I.D.C.,Thane Municipal Transport,4,platform,273,1,43
Feature,Point,72.9566818,19.1858154,bus_stop,Mulund Check Naka,Thane Municipal Transport,5,platform,274,1,43
Feature,Point,72.9581619,19.1859621,bus_stop,Kashish Park,Thane Municipal Transport,6,platform,275,1,43
Feature,Point,72.9611452,19.1869221,bus_stop,Johnson Company,Thane Municipal Transport,7,platform,276,1,43
Feature,Point,72.9625628,19.1879519,bus_stop,Teen Hath Naka,Thane Municipal Transport,8,platform,277,1,43
Feature,Point,72.9644701,19.1889993,bus_stop,Forest Office,Thane Municipal Transport,9,platform,278,1,43
Feature,Point,72.9661077,19.1906054,bus_stop,Hari Nivas,Thane Municipal Transport,10,platform,279,1,43
Feature,Point,72.968645,19.1873685,bus_stop,Ice Factory,Thane Municipal Transport,11,platform,280,1,43
Feature,Point,72.971733,19.1876605,bus_stop,A.K. Joshi Vidyalaya,Thane Municipal Transport,12,platform,281,1,43
Feature,Point,72.9746814,19.1887776,bus_stop,Gaondevi,Thane Municipal Transport,13,platform,282,1,43
Feature,Point,72.976106,19.186713,bus_stop,Thane Station West SATIS,Thane Municipal Transport,14,platform,283,1,43
Feature,Point,72.9766613,19.1938002,bus_stop,Talao Pali,Thane Municipal Transport,15,platform,284,1,43
Feature,Point,72.9773186,19.1971042,bus_stop,Tembhi Naka,Thane Municipal Transport,16,platform,285,1,43
Feature,Point,72.9788224,19.1990353,bus_stop,Civil Hospital,Thane Municipal Transport,17,platform,286,1,43
Feature,Point,72.9812988,19.1989812,bus_stop,R.T.O Thane,Thane Municipal Transport,18,platform,287,1,43
Feature,Point,72.9832129,19.1973193,bus_stop,Kanhaji Agrh Chowk,Thane Municipal Transport,19,platform,288,1,43
Feature,Point,72.9875995,19.196292,bus_stop,Kalwa Naka,Thane Municipal Transport,20,platform,289,1,43
Feature,Point,72.9907979,19.1968213,bus_stop,Manisha Nagar,Thane Municipal Transport,21,platform,290,1,43
Feature,Point,72.9938332,19.1980337,bus_stop,Sahyadri Society,Thane Municipal Transport,22,platform,291,1,43
Feature,Point,72.9953232,19.198808,bus_stop,Jyotiba Phule Nagar / Sukur Park,Thane Municipal Transport,23,platform,292,1,43
Feature,Point,72.9986435,19.2004522,bus_stop,Datta Wadi,Thane Municipal Transport,24,platform,293,1,43
Feature,Point,73.001359,19.2018155,bus_stop,Kharegaon Naka,Thane Municipal Transport,25,platform,294,1,43
Feature,Point,73.001542,19.2031855,bus_stop,Kharegaon Pakhadi,Thane Municipal Transport,26,platform,295,1,43
Feature,Point,72.9995867,19.2052914,bus_stop,Kharegaon,Thane Municipal Transport,27,platform,296,1,43
Feature,Point,72.9843872,19.2143345,bus_stop,Lodha,Thane Municipal Transport,1,platform,3184,0,112
Feature,Point,72.9844941,19.2132377,bus_stop,Lodha Complex,Thane Municipal Transport,2,platform,3185,0,112
Feature,Point,72.9846525,19.21149,bus_stop,Lodha Gate,Thane Municipal Transport,3,platform,3186,0,112
Feature,Point,72.984103,19.2108498,bus_stop,Majiwada,Thane Municipal Transport,4,platform,3187,0,112
Feature,Point,72.9772645,19.2105741,bus_stop,Muktai Nagar,Thane Municipal Transport,5,platform,3188,0,112
Feature,Point,72.9771247,19.2088865,bus_stop,Gokul Nagar,Thane Municipal Transport,6,platform,3189,0,112
Feature,Point,72.9775002,19.2071093,bus_stop,Castle Mill,Thane Municipal Transport,7,platform,3190,0,112
Feature,Point,72.9795409,19.201159,bus_stop,Police Line,Thane Municipal Transport,8,platform,3191,0,112
Feature,Point,72.9799664,19.1979219,bus_stop,Central Maidan,Thane Municipal Transport,9,platform,3192,0,112
Feature,Point,72.9785378,19.1970568,bus_stop,Court Naka,Thane Municipal Transport,10,platform,3193,0,112
Feature,Point,72.977949,19.194488,bus_stop,Jambhali Naka,Thane Municipal Transport,11,platform,3194,0,112
Feature,Point,72.9769146,19.1905192,bus_stop,Prabhat Cinema,Thane Municipal Transport,12,platform,3195,0,112
Feature,Point,72.9772123,19.1871273,bus_stop,Thane Station West SATIS,Thane Municipal Transport,13,platform,3196,0,112
Feature,Point,72.9772105,19.1871558,bus_stop,Thane Station West SATIS,Thane Municipal Transport,1,platform,3197,0,3
Feature,Point,72.9766927,19.1937994,bus_stop,Talao Pali,Thane Municipal Transport,2,platform,3198,0,3
Feature,Point,72.9717261,19.187607,bus_stop,A.K. Joshi Vidyalaya,Thane Municipal Transport,3,platform,3199,0,3
Feature,Point,72.9675353,19.1886659,bus_stop,Shahu Maharaj Market,Thane Municipal Transport,4,platform,3200,0,3
Feature,Point,72.9676961,19.1904637,bus_stop,Hari Niwas,Thane Municipal Transport,5,platform,3201,0,3
Feature,Point,72.9647031,19.1889397,bus_stop,Forest Office,Thane Municipal Transport,6,platform,3202,0,3
Feature,Point,72.9627432,19.1877052,bus_stop,Teen Hath Naka,Thane Municipal Transport,7,platform,3203,0,3
Feature,Point,72.9611666,19.1866754,bus_stop,Johnson Company,Thane Municipal Transport,8,platform,3204,0,3
Feature,Point,72.9580217,19.1857361,bus_stop,Kashish Park,Thane Municipal Transport,9,platform,3205,0,3
Feature,Point,72.9565973,19.18553,bus_stop,Mulund Check Naka (Narpoli),Thane Municipal Transport,10,platform,3206,0,3
Feature,Point,72.9551453,19.1874041,bus_stop,Automatic Company,Thane Municipal Transport,11,platform,3207,0,3
Feature,Point,72.9552509,19.1910991,bus_stop,M.I.D.C,Thane Municipal Transport,12,platform,3208,0,3
Feature,Point,72.9538549,19.1933891,bus_stop,Road No 16,Thane Municipal Transport,13,platform,3209,0,3
Feature,Point,72.95492066,19.19595915,bus_stop,Bradma Compound,Thane Municipal Transport,14,platform,3210,0,3
Feature,Point,72.9556999,19.1976043,bus_stop,Ambika Nagar,Thane Municipal Transport,15,platform,3211,0,3
Feature,Point,72.9541809,19.1993826,bus_stop,Agriculture,Thane Municipal Transport,16,platform,3212,0,3
Feature,Point,72.9536996,19.2025581,bus_stop,Jai Bhawani Nagar,Thane Municipal Transport,17,platform,3213,0,3
Feature,Point,72.9539819,19.2035738,bus_stop,Kamgar Hospital Thane,Thane Municipal Transport,18,platform,3214,0,3
Feature,Point,72.954137,19.20590019,bus_stop,Sawarkar Nagar,Thane Municipal Transport,19,platform,3215,0,3
Feature,Point,72.9546675,19.2078418,bus_stop,Yashodhan Nagar,Thane Municipal Transport,20,platform,3216,0,3
Feature,Point,72.9522782,19.2093606,bus_stop,Lokmanya Nagar,Thane Municipal Transport,21,platform,3217,0,3
Feature,Point,72.9522876,19.2093573,bus_stop,Lokmanya Nagar,Thane Municipal Transport,1,platform,3218,1,3
Feature,Point,72.9540062,19.2085084,bus_stop,Yashodhan Nagar,Thane Municipal Transport,2,platform,3219,1,3
Feature,Point,72.95425928,19.20606078,bus_stop,Sawarkar Nagar,Thane Municipal Transport,3,platform,3220,1,3
Feature,Point,72.9541217,19.2036509,bus_stop,Kamgar Hospital Thane,Thane Municipal Transport,4,platform,3221,1,3
Feature,Point,72.9537287,19.2020494,bus_stop,Jai Bhawani Nagar,Thane Municipal Transport,5,platform,3222,1,3
Feature,Point,72.9539748,19.2000843,bus_stop,Agriculture,Thane Municipal Transport,6,platform,3223,1,3
Feature,Point,72.9556565,19.1977496,bus_stop,Ambika Nagar,Thane Municipal Transport,7,platform,3224,1,3
Feature,Point,72.953771,19.1937012,bus_stop,Road No 16,Thane Municipal Transport,8,platform,3225,1,3
Feature,Point,72.955442,19.1911632,bus_stop,M.I.D.C,Thane Municipal Transport,9,platform,3226,1,3
Feature,Point,72.9566807,19.1858298,bus_stop,Mulund Check Naka (Narpoli),Thane Municipal Transport,10,platform,3227,1,3
Feature,Point,72.9644606,19.1890219,bus_stop,Forest Office,Thane Municipal Transport,11,platform,3228,1,3
Feature,Point,72.9679519,19.1912478,bus_stop,Hari Niwas,Thane Municipal Transport,12,platform,3229,1,3
Feature,Point,72.9686447,19.1873646,bus_stop,Ice Factory,Thane Municipal Transport,13,platform,3230,1,3
Feature,Point,72.9717325,19.1876623,bus_stop,A.K. Joshi Vidyalaya,Thane Municipal Transport,14,platform,3231,1,3
Feature,Point,72.9746784,19.1887786,bus_stop,Gaondevi,Thane Municipal Transport,15,platform,3232,1,3
Feature,Point,72.9772051,19.1871792,bus_stop,Thane Station West SATIS,Thane Municipal Transport,16,platform,3233,1,3
Feature,Point,72.9772104,19.1871502,bus_stop,Thane Station West SATIS,Thane Municipal Transport,1,platform,3234,1,10
Feature,Point,72.9737647,19.189159,bus_stop,Gaondevi,Thane Municipal Transport,2,platform,3235,1,10
Feature,Point,72.9687968,19.1872068,bus_stop,Ice Factory,Thane Municipal Transport,3,platform,3236,1,10
Feature,Point,72.9674344,19.1914422,bus_stop,Hari Niwas,Thane Municipal Transport,4,platform,3237,1,10
Feature,Point,72.9704167,19.1943877,bus_stop,Vandana Cinema,Thane Municipal Transport,5,platform,3238,1,10
Feature,Point,72.9717147,19.1984515,bus_stop,Makhamali Talav,Thane Municipal Transport,6,platform,3239,1,10
Feature,Point,72.9732935,19.2007664,bus_stop,Khopat S.T. Workshop,Thane Municipal Transport,7,platform,3240,1,10
Feature,Point,72.972243,19.2028723,bus_stop,Khopat,Thane Municipal Transport,8,platform,3241,1,10
Feature,Point,72.9698022,19.2040705,bus_stop,Pujani Estate,Thane Municipal Transport,9,platform,3242,1,10
Feature,Point,72.9670909,19.2053512,bus_stop,Cadbury Company,Thane Municipal Transport,10,platform,3243,1,10
Feature,Point,72.9641452,19.2079845,bus_stop,Raymond,Thane Municipal Transport,11,platform,3244,1,10
Feature,Point,72.9618386,19.2099636,bus_stop,Vartak Nagar Naka,Thane Municipal Transport,12,platform,3245,1,10
Feature,Point,72.9601132,19.2121236,bus_stop,Building No 3,Thane Municipal Transport,13,platform,3246,1,10
Feature,Point,72.9591374,19.2133853,bus_stop,S T Juna Thamba / Shastri Nagar,Thane Municipal Transport,14,platform,3247,1,10
Feature,Point,72.9579701,19.2148436,bus_stop,Devdaya Nagar,Thane Municipal Transport,15,platform,3248,1,10
Feature,Point,72.9563001,19.2156673,bus_stop,Shivai Nagar,Thane Municipal Transport,16,platform,3249,1,10
Feature,Point,72.9542049,19.2172614,bus_stop,Khandelwal Estate,Thane Municipal Transport,17,platform,3250,1,10
Feature,Point,72.9527756,19.2185195,bus_stop,Bhu Kendra,Thane Municipal Transport,18,platform,3251,1,10
Feature,Point,72.9536082,19.2205572,bus_stop,Upvan Talav,Thane Municipal Transport,19,platform,3252,1,10
Feature,Point,72.9582459,19.2244068,bus_stop,Kokanipada,Thane Municipal Transport,20,platform,3253,1,10
Feature,Point,72.958532,19.2247863,bus_stop,Nilkanth,Thane Municipal Transport,21,platform,3254,1,10
Feature,Point,72.9586825,19.2250711,bus_stop,Gawand Baug,Thane Municipal Transport,22,platform,3255,1,10
Feature,Point,72.9587874,19.2249404,bus_stop,Gawand Baug,Thane Municipal Transport,1,platform,3256,0,10
Feature,Point,72.9583183,19.2240504,bus_stop,Kokanipada,Thane Municipal Transport,2,platform,3257,0,10
Feature,Point,72.9544717,19.2212275,bus_stop,Upvan Talav,Thane Municipal Transport,3,platform,3258,0,10
Feature,Point,72.9527346,19.2188331,bus_stop,Bhu Kendra,Thane Municipal Transport,4,platform,3259,0,10
Feature,Point,72.9544843,19.2173247,bus_stop,Khandelwal Estate,Thane Municipal Transport,5,platform,3260,0,10
Feature,Point,72.9564798,19.2157307,bus_stop,Shivai Nagar,Thane Municipal Transport,6,platform,3261,0,10
Feature,Point,72.9582325,19.2149785,bus_stop,Devdaya Nagar,Thane Municipal Transport,7,platform,3262,0,10
Feature,Point,72.9591644,19.2137373,bus_stop,S T Juna Thamba / Shastri Nagar,Thane Municipal Transport,8,platform,3263,0,10
Feature,Point,72.9602479,19.212276,bus_stop,Building No 3,Thane Municipal Transport,9,platform,3264,0,10
Feature,Point,72.9616166,19.2105935,bus_stop,Vartak Nagar Naka,Thane Municipal Transport,10,platform,3265,0,10
Feature,Point,72.9651831,19.2074119,bus_stop,Raymond,Thane Municipal Transport,11,platform,3266,0,10
Feature,Point,72.9671817,19.2055907,bus_stop,Cadbury Company,Thane Municipal Transport,12,platform,3267,0,10
Feature,Point,72.9695969,19.2042736,bus_stop,Pujani Estate,Thane Municipal Transport,13,platform,3268,0,10
Feature,Point,72.9718279,19.203411,bus_stop,Khopat,Thane Municipal Transport,14,platform,3269,0,10
Feature,Point,72.973277,19.2006105,bus_stop,Khopat S.T. Workshop,Thane Municipal Transport,15,platform,3270,0,10
Feature,Point,72.9718271,19.1984378,bus_stop,Makhamali Talav,Thane Municipal Transport,16,platform,3271,0,10
Feature,Point,72.9705419,19.194197,bus_stop,Vandana Cinema,Thane Municipal Transport,17,platform,3272,0,10
Feature,Point,72.9679555,19.1912486,bus_stop,Hari Niwas,Thane Municipal Transport,18,platform,3273,0,10
Feature,Point,72.9686449,19.18737,bus_stop,Ice Factory,Thane Municipal Transport,19,platform,3274,0,10
Feature,Point,72.9746785,19.1887812,bus_stop,Gaondevi,Thane Municipal Transport,20,platform,3275,0,10
Feature,Point,72.9772086,19.1871613,bus_stop,Thane Station West SATIS,Thane Municipal Transport,21,platform,3276,0,10
Feature,Point,72.9495747,19.1896228,bus_stop,Kisan Nagar,Thane Municipal Transport,1,platform,3277,1,22
Feature,Point,72.9537707,19.1936949,bus_stop,Road No 16,Thane Municipal Transport,2,platform,3278,1,22
Feature,Point,72.9554494,19.1911638,bus_stop,M.I.D.C,Thane Municipal Transport,3,platform,3279,1,22
Feature,Point,72.9566806,19.1858359,bus_stop,Mulund Check Naka (Narpoli),Thane Municipal Transport,4,platform,3280,1,22
Feature,Point,72.9581599,19.1859799,bus_stop,Kashish Park,Thane Municipal Transport,5,platform,3281,1,22
Feature,Point,72.9610781,19.1869098,bus_stop,Johnson Company,Thane Municipal Transport,6,platform,3282,1,22
Feature,Point,72.9625625,19.1879388,bus_stop,Teen Hath Naka,Thane Municipal Transport,7,platform,3283,1,22
Feature,Point,72.9649299,19.188019,bus_stop,Income Tax Office,Thane Municipal Transport,8,platform,3284,1,22
Feature,Point,72.968645,19.1873667,bus_stop,Ice Factory,Thane Municipal Transport,9,platform,3285,1,22
Feature,Point,72.9717308,19.1876754,bus_stop,A.K. Joshi Vidyalaya,Thane Municipal Transport,10,platform,3286,1,22
Feature,Point,72.9738269,19.1878833,bus_stop,Gaondevi,Thane Municipal Transport,11,platform,3287,1,22
Feature,Point,72.977211,19.1871285,bus_stop,Thane Station West SATIS,Thane Municipal Transport,12,platform,3288,1,22
Feature,Point,72.9772109,19.1871294,bus_stop,Thane Station West SATIS,Thane Municipal Transport,1,platform,3289,0,22
Feature,Point,72.9717268,19.1876068,bus_stop,A.K. Joshi Vidyalaya,Thane Municipal Transport,2,platform,3290,0,22
Feature,Point,72.9669852,19.1874401,bus_stop,Malhar Cinema,Thane Municipal Transport,3,platform,3291,0,22
Feature,Point,72.9646374,19.1880424,bus_stop,Income Tax Office,Thane Municipal Transport,4,platform,3292,0,22
Feature,Point,72.9627435,19.1877045,bus_stop,Teen Hath Naka,Thane Municipal Transport,5,platform,3293,0,22
Feature,Point,72.9611659,19.1866929,bus_stop,Johnson Company,Thane Municipal Transport,6,platform,3294,0,22
Feature,Point,72.9580216,19.1857289,bus_stop,Kashish Park,Thane Municipal Transport,7,platform,3295,0,22
Feature,Point,72.9565975,19.1855361,bus_stop,Mulund Check Naka,Thane Municipal Transport,8,platform,3296,0,22
Feature,Point,72.9551391,19.1874056,bus_stop,Automatic Company,Thane Municipal Transport,9,platform,3297,0,22
Feature,Point,72.9552479,19.1910979,bus_stop,M.I.D.C,Thane Municipal Transport,10,platform,3298,0,22
Feature,Point,72.9538541,19.1933869,bus_stop,Road No 16,Thane Municipal Transport,11,platform,3299,0,22
Feature,Point,72.9493736,19.1939001,bus_stop,Road No 22,Thane Municipal Transport,12,platform,3300,0,22
Feature,Point,72.9495745,19.1896327,bus_stop,Kisan Nagar,Thane Municipal Transport,13,platform,3301,0,22
Feature,Point,72.9816729,19.2139249,bus_stop,Majiwada Gaon,Thane Municipal Transport,1,platform,3302,0,27
Feature,Point,72.9797748,19.214505,bus_stop,Sachin Society,Thane Municipal Transport,2,platform,3303,0,27
Feature,Point,72.9780454,19.2148411,bus_stop,Majiwada Gaon Corner,Thane Municipal Transport,3,platform,3304,0,27
Feature,Point,72.9781247,19.2157388,bus_stop,Ashapura Mandir,Thane Municipal Transport,4,platform,3305,0,27
Feature,Point,72.9779932,19.2143151,bus_stop,Majiwada Naka,Thane Municipal Transport,5,platform,3306,0,27
Feature,Point,72.9772722,19.2105737,bus_stop,Muktai Nagar,Thane Municipal Transport,6,platform,3307,0,27
Feature,Point,72.9771333,19.2088863,bus_stop,Gokul Nagar,Thane Municipal Transport,7,platform,3308,0,27
Feature,Point,72.9774949,19.2071097,bus_stop,Castle Mill,Thane Municipal Transport,8,platform,3309,0,27
Feature,Point,72.9789321,19.2034407,bus_stop,Holy Cross School,Thane Municipal Transport,9,platform,3310,0,27
Feature,Point,72.9795577,19.2011592,bus_stop,Police Line,Thane Municipal Transport,10,platform,3311,0,27
Feature,Point,72.9772813,19.1965213,bus_stop,Court Naka,Thane Municipal Transport,11,platform,3312,0,27
Feature,Point,72.9767683,19.1933222,bus_stop,Talao Pali,Thane Municipal Transport,12,platform,3313,0,27
Feature,Point,72.9772109,19.18715,bus_stop,Thane Station West SATIS,Thane Municipal Transport,13,platform,3314,0,27
Feature,Point,72.9772112,19.1871506,bus_stop,Thane Station West SATIS,Thane Municipal Transport,1,platform,3315,1,27
Feature,Point,72.9767126,19.193799,bus_stop,Talao Pali,Thane Municipal Transport,2,platform,3316,1,27
Feature,Point,72.978273,19.1971675,bus_stop,Court Naka,Thane Municipal Transport,3,platform,3317,1,27
Feature,Point,72.9792987,19.2012518,bus_stop,Police Line,Thane Municipal Transport,4,platform,1694,1,27
